S/T name,SA3 code,SA3 name,SA2 code,SA2 name,0-4,5–9,10–14,15–19,20–24,25–29,30–34,35–39,40–44,45–49,50–54,55–59,60–64,65–69,70–74,75–79,80–84,85 and over,Total Persons,Latitude,Longitude
New South Wales,10102,Queanbeyan,101021007,Braidwood,244,252,228,197,137,148,184,221,213,316,318,381,404,333,288,194,89,75,4222,-35.443496,149.794956
New South Wales,10102,Queanbeyan,101021008,Karabar,542,559,535,479,541,585,576,564,522,615,570,544,508,410,332,249,136,105,8372,-35.375872,149.22926
New South Wales,10102,Queanbeyan,101021009,Queanbeyan,843,589,453,390,651,1127,1361,910,732,773,718,695,524,509,373,273,247,283,11451,-35.353399,149.230104
New South Wales,10102,Queanbeyan,101021010,"Queanbeyan, Queanbeyan East",373,281,229,184,367,501,526,392,328,332,366,335,314,223,170,115,70,44,5150,null,null
New South Wales,10102,Queanbeyan,101021011,Queanbeyan Region,1415,1468,1618,1289,934,1141,1205,1372,1504,1606,1527,1477,1178,1023,736,407,193,148,20241,-35.353399,149.230104
New South Wales,10102,Queanbeyan,101021012,"Queanbeyan West, Queanbeyan West Jerrabomberra",845,989,1086,1057,794,691,777,873,942,1219,1176,963,577,431,318,191,113,94,13136,-35.359991,149.203411
New South Wales,10103,Snowy Mountains,101031013,Bombala,128,145,152,102,97,129,142,117,124,141,168,173,200,182,188,95,65,75,2423,-36.912244,149.241001
New South Wales,10103,Snowy Mountains,101031014,Cooma,391,384,407,353,381,365,461,372,371,476,480,466,434,380,378,303,218,234,6854,-36.237452,149.135418
New South Wales,10103,Snowy Mountains,101031015,Cooma Region,155,162,232,204,112,126,122,149,185,242,276,289,283,292,220,176,91,66,3382,-36.237452,149.135418
New South Wales,10103,Snowy Mountains,101031016,"Jindabyne, Berridale",278,425,546,440,433,597,495,426,515,599,503,528,468,368,265,167,90,72,7215,-36.400392,148.648217
New South Wales,10104,South Coast,101041017,Batemans Bay,398,483,458,420,322,337,326,385,393,443,422,545,677,700,662,480,264,310,8025,-35.709068,150.176583
New South Wales,10104,South Coast,101041018,"Batemans Bay, Batemans Bay South",390,386,465,438,325,284,328,334,405,476,492,683,703,844,795,566,331,283,8528,-35.709068,150.176583
New South Wales,10104,South Coast,101041019,"Bega, Tathra",497,575,623,517,405,375,375,424,471,532,579,733,690,551,478,360,267,245,8697,-36.701317,149.843248
New South Wales,10104,South Coast,101041020,"Bega, Eden Hinterland",370,493,596,570,277,254,298,354,389,626,697,966,959,858,566,341,140,140,8894,-36.701317,149.843248
New South Wales,10104,South Coast,101041021,"Broulee, Tomakin",124,204,217,231,133,115,100,138,186,215,201,293,313,295,259,218,147,140,3529,-35.8525,150.15323
New South Wales,10104,South Coast,101041022,"Deua, Wadbilliga",0,0,0,0,0,0,1,0,2,0,3,3,4,4,3,2,0,3,25,null,null
New South Wales,10104,South Coast,101041023,Eden,185,175,147,180,108,136,148,166,158,158,210,239,292,289,274,157,116,98,3236,-37.047116,149.907482
New South Wales,10104,South Coast,101041024,Eurobodalla Hinterland,129,127,192,204,168,114,125,148,167,223,274,371,311,338,257,142,66,50,3406,-36.1485,149.9679
New South Wales,10104,South Coast,101041025,"Merimbula, Tura Beach",452,568,614,555,428,466,467,500,491,642,721,852,1047,984,993,647,468,415,11310,-36.890065,149.916656
New South Wales,10104,South Coast,101041026,"Moruya, Tuross Head",319,402,421,411,290,257,262,320,371,536,535,734,881,771,720,469,289,255,8243,-35.916073,150.082402
New South Wales,10104,South Coast,101041027,"Narooma, Bermagui",388,412,469,394,218,266,306,354,340,486,477,807,1014,1063,907,553,342,409,9205,-36.238774,150.11061
New South Wales,10105,"Goulburn , Mulwaree",101051539,Goulburn,1498,1508,1454,1321,1490,1724,1690,1473,1360,1592,1381,1567,1400,1329,1126,877,603,677,24070,-34.747283,149.726961
New South Wales,10105,"Goulburn , Mulwaree",101051540,Goulburn Region,626,760,915,762,571,571,564,619,725,959,954,1124,1072,997,823,604,349,265,13260,-34.747283,149.726961
New South Wales,10106,"Young , Yass",101061541,Yass,450,476,453,369,359,394,386,429,369,441,433,459,406,329,355,225,162,197,6692,-34.841621,148.911312
New South Wales,10106,"Young , Yass",101061542,Yass Region,671,910,1022,870,520,460,484,631,902,1113,932,859,843,745,575,381,196,167,12281,-34.841621,148.911312
New South Wales,10106,"Young , Yass",101061543,Young,703,811,806,748,534,583,525,629,630,628,655,680,614,645,589,444,311,292,10827,-34.316951,148.294442
New South Wales,10106,"Young , Yass",101061544,Young Region,420,475,436,379,300,324,262,303,321,482,492,604,601,601,524,338,204,170,7236,-34.316951,148.294442
New South Wales,10201,Gosford,102011028,"Avoca Beach, Copacabana",434,563,640,622,438,304,318,422,557,632,573,544,488,431,326,223,149,96,7760,-33.469361,151.426335
New South Wales,10201,Gosford,102011029,"Box Head, MacMasters Beach",516,690,698,670,595,367,451,488,653,742,801,814,825,801,871,504,325,333,11144,-33.53641,151.345763
New South Wales,10201,Gosford,102011030,"Calga, Kulnura",209,216,276,346,278,250,255,271,253,368,422,465,351,310,304,202,95,99,4970,-33.411199,151.224939
New South Wales,10201,Gosford,102011031,"Erina, Green Point",664,820,1008,950,815,500,635,714,783,956,915,946,927,875,891,685,610,700,14394,-33.438387,151.39399
New South Wales,10201,Gosford,102011032,"Gosford, Springfield",1227,1014,1102,1020,1218,1649,1476,1320,1241,1297,1150,1291,1176,1096,893,655,488,576,19889,-33.420189,151.337076
New South Wales,10201,Gosford,102011033,Kariong,449,515,483,512,549,365,409,440,494,472,468,438,342,195,148,115,93,66,6553,-33.442496,151.294544
New South Wales,10201,Gosford,102011034,"Kincumber, Picketts Valley",418,480,503,418,325,347,390,385,375,472,414,468,428,411,490,415,331,486,7556,-33.472742,151.397156
New South Wales,10201,Gosford,102011035,Narara,443,503,462,452,446,413,475,408,437,510,461,482,405,343,293,185,104,98,6920,-33.395092,151.33316
New South Wales,10201,Gosford,102011036,"Niagara Park, Lisarow",499,600,627,566,550,443,387,519,559,606,544,596,480,387,328,193,119,118,8121,-33.375304,151.348371
New South Wales,10201,Gosford,102011037,"Point Clare, Koolewong",375,393,342,359,297,289,356,367,367,475,447,463,424,344,374,295,196,106,6269,-33.438117,151.316885
New South Wales,10201,Gosford,102011038,"Saratoga, Davistown",444,500,460,428,433,361,391,449,420,456,410,507,450,412,410,330,230,248,7339,-33.476307,151.34739
New South Wales,10201,Gosford,102011039,"Terrigal, North Avoca",790,929,920,866,811,878,820,832,844,1034,963,984,970,832,791,536,344,307,14451,-33.440044,151.424541
New South Wales,10201,Gosford,102011040,"Umina, Booker Bay, Patonga",1464,1390,1271,1282,1287,1205,1221,1552,1423,1606,1491,1613,1641,1677,1715,1194,832,949,24813,-32.494981,146.586903
New South Wales,10201,Gosford,102011041,"Wamberal, Forresters Beach",624,794,809,722,612,391,453,609,727,830,652,636,646,546,518,348,253,262,10432,-33.423263,151.44338
New South Wales,10201,Gosford,102011042,"Woy Woy, Blackwall",732,804,736,694,734,816,779,811,853,893,909,995,1018,931,920,705,519,666,14515,-33.498754,151.314926
New South Wales,10201,Gosford,102011043,Wyoming,781,806,740,687,692,655,782,750,715,710,692,707,693,592,605,460,326,440,11833,-32.06744,147.45174
New South Wales,10202,Wyong,102021044,"Bateau Bay, Killarney Vale",1452,1560,1471,1280,1263,1288,1464,1544,1298,1346,1269,1356,1374,1265,1134,817,619,815,22615,-33.386445,151.472487
New South Wales,10202,Wyong,102021045,"Blue Haven, San Remo",901,908,895,852,808,828,710,671,661,849,652,600,551,480,406,319,187,162,11440,-33.210965,151.503514
New South Wales,10202,Wyong,102021046,"Budgewoi, Buff Point, Halekulani",581,531,560,501,534,544,473,594,513,611,573,717,670,554,622,519,347,326,9770,-33.230457,151.551766
New South Wales,10202,Wyong,102021047,"Chittaway Bay, Tumbi Umbi",1022,1043,1110,938,932,991,919,947,936,1073,1048,1084,937,813,670,520,380,385,15748,-33.32637,151.436528
New South Wales,10202,Wyong,102021048,"Gorokan, Kanwal, Charmhaven",1347,1323,1493,1517,1569,1508,1323,1191,1184,1355,1364,1448,1462,1246,1210,915,693,748,22896,-33.256322,151.503342
New South Wales,10202,Wyong,102021049,"Jilliby, Yarramalong",161,215,242,313,253,142,167,212,236,286,304,302,240,206,146,68,44,39,3576,null,null
New South Wales,10202,Wyong,102021050,"Lake Munmorah, Mannering Park",542,581,625,632,594,578,577,538,462,564,686,742,767,768,931,768,511,369,11235,-33.187691,151.574552
New South Wales,10202,Wyong,102021051,"Ourimbah, Fountaindale",275,350,363,320,340,324,296,292,310,368,352,385,316,271,187,128,73,67,5017,-33.317783,151.338722
New South Wales,10202,Wyong,102021052,"Summerland Point, Gwandalan",323,397,354,374,318,337,344,346,317,443,412,405,388,411,437,242,159,121,6128,-33.142779,151.565393
New South Wales,10202,Wyong,102021053,The Entrance,853,839,870,704,892,764,896,965,860,1039,948,1131,1072,1081,1002,781,509,654,15860,-33.345039,151.495532
New South Wales,10202,Wyong,102021054,"Toukley, Norah Head",576,625,562,506,621,655,529,503,491,594,567,710,720,698,638,539,367,471,10372,-33.256584,151.551897
New South Wales,10202,Wyong,102021055,"Tuggerah, Kangy Angy",329,377,361,367,365,369,422,303,351,419,327,320,313,249,213,202,95,88,5470,-33.307697,151.428955
New South Wales,10202,Wyong,102021056,"Warnervale, Wadalba",1335,1505,1621,1314,1032,1033,1229,1335,1295,1296,948,882,659,635,640,437,279,161,17636,-33.252313,151.450039
New South Wales,10202,Wyong,102021057,Wyong,621,611,623,573,600,581,538,570,523,635,613,638,502,508,468,283,207,200,9294,-33.277835,151.437702
New South Wales,10301,Bathurst,103011058,Bathurst,1556,1431,1511,1635,2475,1974,1693,1523,1344,1461,1372,1436,1327,1177,1009,723,567,643,24857,-33.417961,149.576458
New South Wales,10301,Bathurst,103011059,"Bathurst, Bathurst East",865,1006,1042,1061,767,824,749,741,684,888,725,669,581,552,444,315,225,196,12334,-33.417961,149.576458
New South Wales,10301,Bathurst,103011060,Bathurst Region,321,376,511,492,325,255,275,365,437,538,615,619,539,482,461,242,113,107,7073,-33.29156,149.552885
New South Wales,10301,Bathurst,103011061,Oberon,280,263,287,286,287,264,236,221,221,313,294,356,324,363,324,178,133,87,4717,-33.703874,149.860889
New South Wales,10302,Lachlan Valley,103021062,Condobolin,487,540,449,332,286,371,422,390,321,342,336,435,432,376,350,245,223,192,6529,-33.082168,147.147506
New South Wales,10302,Lachlan Valley,103021063,Cowra,554,612,613,537,508,500,419,464,447,530,558,637,636,603,580,425,325,346,9294,-33.832784,148.679979
New South Wales,10302,Lachlan Valley,103021064,Cowra Region,257,293,378,350,299,213,197,228,277,389,411,427,437,440,383,284,158,135,5556,-33.832784,148.679979
New South Wales,10302,Lachlan Valley,103021065,Forbes,672,721,697,737,599,576,531,564,491,612,603,735,622,654,582,441,389,265,10491,-33.376142,148.005911
New South Wales,10302,Lachlan Valley,103021066,Grenfell,174,205,211,182,144,118,145,165,199,183,258,298,267,310,274,180,142,151,3606,-33.899512,148.154935
New South Wales,10302,Lachlan Valley,103021067,Parkes ,715,854,778,745,749,674,634,646,586,669,626,709,675,594,486,429,300,339,11208,-33.139833,148.179809
New South Wales,10302,Lachlan Valley,103021068,Parkes Region,234,195,235,216,167,112,155,152,159,167,237,274,284,258,221,135,82,107,3390,-33.139833,148.179809
New South Wales,10302,Lachlan Valley,103021069,West Wyalong,354,408,445,363,289,321,269,375,339,332,337,442,419,348,309,222,179,209,5960,-33.924063,147.211571
New South Wales,10303,"Lithgow , Mudgee",103031070,Lithgow,723,774,722,670,701,815,771,722,679,820,746,897,859,796,779,599,415,419,12907,-33.485129,150.15933
New South Wales,10303,"Lithgow , Mudgee",103031071,Lithgow Region,407,512,581,529,383,361,420,412,473,557,628,775,645,662,564,365,166,165,8605,-33.485129,150.15933
New South Wales,10303,"Lithgow , Mudgee",103031072,Mudgee,960,1006,918,710,676,772,974,808,737,768,739,767,603,562,489,442,304,283,12518,-32.602195,149.572904
New South Wales,10303,"Lithgow , Mudgee",103031073,"Mudgee Region, Mudgee Region East",156,187,188,191,106,141,128,144,190,206,266,273,299,285,300,209,128,78,3475,-32.602195,149.572904
New South Wales,10303,"Lithgow , Mudgee",103031074,"Mudgee Region, Mudgee Region West",555,738,772,620,446,428,462,547,553,760,805,869,769,683,702,444,261,216,10630,-32.602195,149.572904
New South Wales,10303,"Lithgow , Mudgee",103031075,"Wollangambe, Wollemi",0,0,0,0,0,0,0,0,0,0,0,0,0,0,0,0,0,0,0,-32.494981,146.586903
New South Wales,10304,Orange,103041076,Blayney,446,543,532,511,346,354,379,366,389,507,486,562,530,449,373,240,205,164,7382,-33.532091,149.249356
New South Wales,10304,Orange,103041077,Orange,1277,1148,1075,1143,1223,1209,1245,1121,1008,1049,1132,1162,1120,1072,948,727,558,658,18875,-33.284306,149.0986
New South Wales,10304,Orange,103041078,"Orange, Orange North",1851,1832,1781,1348,1189,1637,1698,1583,1436,1465,1180,1102,1033,898,758,484,373,281,21929,-33.284306,149.0986
New South Wales,10304,Orange,103041079,Orange Region,678,935,1012,877,519,434,565,682,731,905,794,922,753,707,671,399,235,229,12048,-33.284306,149.0986
New South Wales,10401,Clarence Valley,104011080,Grafton,1086,1227,1256,1280,1077,1019,1049,977,1024,1147,1085,1316,1202,1136,987,800,647,731,19046,-29.683335,152.935695
New South Wales,10401,Clarence Valley,104011081,Grafton Region,745,873,1015,868,624,539,568,680,767,1096,1129,1499,1454,1357,1167,610,365,296,15652,-29.683335,152.935695
New South Wales,10401,Clarence Valley,104011082,"Maclean, Yamba, Iluka",771,805,866,793,557,448,632,716,751,925,1028,1201,1513,1635,1480,1086,759,699,16665,-29.450491,153.209216
New South Wales,10402,Coffs Harbour,104021083,Bellingen,321,460,521,372,141,207,258,349,393,444,395,491,524,443,300,222,111,99,6051,-30.450513,152.900296
New South Wales,10402,Coffs Harbour,104021084,"Coffs Harbour, Coffs Harbour North",1034,1146,1163,1204,1050,1193,1060,1069,947,1104,1017,1246,1157,1108,1029,734,574,581,18416,-30.290583,153.114278
New South Wales,10402,Coffs Harbour,104021085,"Coffs Harbour, Coffs Harbour South",568,600,664,640,798,726,610,581,563,595,669,670,614,608,568,525,366,365,10730,-30.290583,153.114278
New South Wales,10402,Coffs Harbour,104021086,"Coramba, Nana Glen, Bucca",220,288,323,262,213,142,174,248,251,336,275,349,309,240,192,114,79,32,4047,-30.223305,153.012506
New South Wales,10402,Coffs Harbour,104021087,Dorrigo,168,157,175,200,92,114,122,121,121,207,209,317,335,264,245,164,97,77,3185,-30.338352,152.712049
New South Wales,10402,Coffs Harbour,104021088,"Korora, Emerald Beach",627,782,739,568,357,384,487,633,660,744,659,686,770,691,520,336,162,127,9932,-30.256478,153.135041
New South Wales,10402,Coffs Harbour,104021089,"Sawtell, Boambee",1056,1316,1373,1266,946,976,969,1030,1127,1299,1281,1460,1364,1358,1162,767,588,666,20004,-30.370043,153.096385
New South Wales,10402,Coffs Harbour,104021090,Urunga,183,257,274,227,230,148,165,222,200,341,323,387,480,396,327,276,188,175,4799,-30.495284,153.011883
New South Wales,10402,Coffs Harbour,104021091,"Woolgoolga, Arrawarra",835,856,857,730,504,808,837,758,685,823,711,964,1110,1016,752,509,382,322,13459,-30.115137,153.194955
New South Wales,10501,"Bourke , Cobar , Coonamble",105011092,"Bourke, Brewarrina",319,312,337,199,189,315,297,218,171,265,311,286,223,200,120,95,62,71,3990,-30.090701,145.944501
New South Wales,10501,"Bourke , Cobar , Coonamble",105011093,Cobar,374,351,338,238,234,323,363,331,279,255,280,350,296,221,173,105,84,77,4672,-31.497282,145.834345
New South Wales,10501,"Bourke , Cobar , Coonamble",105011094,Coonamble,374,269,269,228,200,232,232,231,189,266,269,322,297,210,213,135,97,86,4119,-30.95573,148.388199
New South Wales,10501,"Bourke , Cobar , Coonamble",105011095,"Nyngan, Warren",351,346,325,271,227,343,261,247,263,315,290,351,289,265,244,221,151,114,4874,-31.565138,147.192869
New South Wales,10501,"Bourke , Cobar , Coonamble",105011096,"Walgett, Lightning Ridge",407,442,492,243,242,407,361,313,321,374,411,502,496,440,367,249,144,67,6278,-30.027521,148.118811
New South Wales,10502,Broken Hill and Far West,105021097,Broken Hill,997,972,978,933,865,1168,1077,926,826,1076,1106,1302,1242,1175,980,737,547,572,17479,-31.958,141.459866
New South Wales,10502,Broken Hill and Far West,105021098,Far West,192,196,151,127,120,148,173,189,140,150,141,154,174,126,114,76,47,31,2449,-32.494981,146.586903
New South Wales,10503,Dubbo,105031099,Coonabarabran,431,472,589,524,278,267,334,337,419,466,512,584,641,611,535,364,277,267,7908,-31.277531,149.278955
New South Wales,10503,Dubbo,105031100,"Dubbo, East",761,815,697,642,742,740,642,590,639,645,674,766,657,495,376,253,160,159,10453,-32.250776,148.615532
New South Wales,10503,Dubbo,105031101,"Dubbo, Dubbo South",1445,1433,1163,1075,1116,1524,1507,1228,1041,1072,952,1025,941,791,641,564,443,507,18468,-32.250776,148.615532
New South Wales,10503,Dubbo,105031102,"Dubbo, Dubbo West",855,750,692,608,684,790,719,655,563,584,516,527,407,419,428,291,203,155,9846,null,null
New South Wales,10503,Dubbo,105031103,Dubbo Region,347,379,519,402,303,231,293,327,349,409,416,478,471,401,298,186,101,84,5994,-32.250776,148.615532
New South Wales,10503,Dubbo,105031104,Gilgandra,281,325,307,249,208,222,225,205,219,224,276,321,305,273,267,231,143,116,4397,-31.705975,148.657138
New South Wales,10503,Dubbo,105031105,Narromine,436,529,493,433,327,317,331,360,304,402,342,467,445,414,348,247,200,198,6593,-32.236294,148.243593
New South Wales,10503,Dubbo,105031106,Wellington,612,573,571,530,536,695,625,551,506,555,530,630,609,559,495,347,260,258,9442,-32.555162,148.950505
New South Wales,10601,Lower Hunter,106011107,"Branxton, Greta, Pokolbin",815,864,871,686,601,696,855,827,726,797,665,670,662,571,509,246,126,111,11298,-32.6405,151.368377
New South Wales,10601,Lower Hunter,106011108,Cessnock,1669,1601,1530,1391,1651,1877,1746,1573,1350,1388,1245,1397,1312,1196,1027,695,478,543,23669,-32.83164,151.351392
New South Wales,10601,Lower Hunter,106011109,Cessnock Region,465,575,693,521,481,433,410,491,487,644,614,671,651,550,414,274,136,118,8628,-32.83164,151.351392
New South Wales,10601,Lower Hunter,106011110,Dungog,509,626,665,634,450,356,451,514,538,598,659,749,696,654,531,368,246,179,9423,-32.40507,151.749226
New South Wales,10601,Lower Hunter,106011111,"Kurri Kurri, Abermain",1365,1332,1256,1096,1173,1429,1270,1216,1063,1209,1102,1137,1131,992,858,510,337,359,18835,-32.817828,151.481562
New South Wales,10601,Lower Hunter,106011112,Singleton,1207,1244,1197,1065,1036,1206,1169,1053,992,1156,1023,1001,888,639,554,317,250,280,16277,null,null
New South Wales,10601,Lower Hunter,106011113,Singleton Region,313,385,388,327,230,224,263,304,316,373,384,411,386,320,252,169,63,51,5159,-32.566463,151.176038
New South Wales,10602,Maitland,106021114,Maitland,622,605,457,408,441,787,705,523,459,496,421,418,381,306,224,173,139,159,7724,-32.730243,151.548524
New South Wales,10602,Maitland,106021115,"Maitland, Maitland East",1795,2092,1960,1791,1647,1981,1941,1936,1779,1900,1723,1791,1586,1471,1291,876,656,651,28867,-32.730243,151.548524
New South Wales,10602,Maitland,106021116,"Maitland, Maitland North",503,671,744,592,478,350,526,481,531,641,535,513,483,379,378,222,137,125,8289,-32.730243,151.548524
New South Wales,10602,Maitland,106021117,"Maitland, Maitland West",1912,1942,1723,1510,1670,2079,1933,1680,1531,1542,1383,1308,1194,1098,946,574,379,335,24739,-32.730243,151.548524
New South Wales,10602,Maitland,106021118,"Thornton, Millers Forest",943,992,908,816,808,988,997,867,800,891,698,774,617,481,364,205,112,75,12336,-32.785103,151.636277
New South Wales,10603,Port Stephens,106031119,Anna Bay,264,301,345,422,346,213,214,236,326,427,431,484,436,435,428,300,192,135,5935,-32.782449,152.084696
New South Wales,10603,Port Stephens,106031120,"Lemon Tree Passage, Tanilba Bay",400,384,468,329,213,309,337,346,302,347,386,548,614,572,577,346,202,158,6838,-32.730846,152.023848
New South Wales,10603,Port Stephens,106031121,Nelson Bay Peninsula,861,1111,1296,1195,1007,862,871,979,1080,1331,1297,1609,1721,1830,1953,1471,937,930,22341,-32.744119,152.193316
New South Wales,10603,Port Stephens,106031122,Raymond Terrace,924,969,1029,802,967,915,832,823,786,895,811,996,846,743,656,425,282,293,13994,-32.759945,151.754506
New South Wales,10603,Port Stephens,106031123,"Seaham, Woodville",295,332,464,453,381,216,244,265,321,457,447,488,375,324,251,132,65,55,5565,-32.665242,151.722923
New South Wales,10603,Port Stephens,106031124,"Tea Gardens, Hawks Nest",141,155,172,175,186,137,118,155,204,215,292,403,549,666,747,534,263,253,5365,-36.61667,149.28333
New South Wales,10603,Port Stephens,106031125,"Williamtown, Medowie, Karuah",920,1072,1048,956,871,828,853,886,983,1030,1063,962,831,768,745,478,263,177,14734,-32.793498,151.840769
New South Wales,10604,Upper Hunter,106041126,Muswellbrook,1023,965,919,746,716,853,980,841,751,788,822,757,654,524,403,270,189,171,12372,-32.27371,150.896582
New South Wales,10604,Upper Hunter,106041127,Muswellbrook Region,207,271,319,277,206,232,190,274,247,331,285,310,228,180,188,148,52,60,4005,-32.27371,150.896582
New South Wales,10604,Upper Hunter,106041128,Scone,354,410,427,379,293,348,404,347,320,381,342,367,340,296,224,195,163,193,5783,-32.079607,150.85011
New South Wales,10604,Upper Hunter,106041129,Scone Region,467,556,664,516,350,388,505,477,507,575,536,621,610,512,469,268,211,180,8412,-32.079607,150.85011
New South Wales,10701,"Dapto , Port Kembla",107011131,"Dapto, Avondale",1546,1574,1522,1513,1580,1601,1549,1387,1505,1564,1431,1564,1336,1296,1305,1016,700,632,24621,-34.496284,150.794868
New South Wales,10701,"Dapto , Port Kembla",107011132,"Horsley, Kembla Grange",776,817,835,802,593,556,811,809,738,711,609,555,466,380,248,217,133,98,10154,-34.487999,150.774443
New South Wales,10701,"Dapto , Port Kembla",107011133,Port Kembla Industrial,0,0,0,0,0,0,2,0,1,1,2,1,1,2,1,0,0,0,11,-34.481401,150.909402
New South Wales,10701,"Dapto , Port Kembla",107011134,"Unanderra, Mount Kembla",937,923,1022,1087,1105,1085,911,966,926,1092,971,1159,980,789,667,418,303,423,15764,-34.455455,150.848015
New South Wales,10701,"Dapto , Port Kembla",107011545,"Berkeley, Lake Heights, Cringila",916,1042,901,809,1001,1024,1037,994,827,913,881,944,876,666,589,480,457,382,14739,-34.467831,150.848403
New South Wales,10701,"Dapto , Port Kembla",107011546,"Port Kembla, Warrawong",652,689,600,497,605,736,611,572,544,654,664,655,591,482,475,382,368,395,10172,-34.481401,150.909402
New South Wales,10701,"Dapto , Port Kembla",107011547,"Windang, Primbee",233,229,203,196,234,234,219,225,240,239,248,337,321,314,289,270,197,162,4390,-34.529419,150.868832
New South Wales,10702,Illawarra Catchment Reserve,107021135,Illawarra Catchment Reserve,0,0,0,0,0,1,0,0,0,0,0,0,0,2,1,1,0,0,5,-32.494981,146.586903
New South Wales,10703,"Kiama , Shellharbour",107031136,"Albion Park, Macquarie Pass",1119,1161,1162,1170,1078,1074,1076,1018,1040,1079,937,991,826,639,493,370,187,257,15677,-34.582284,150.775825
New South Wales,10703,"Kiama , Shellharbour",107031137,Albion Park Rail,422,443,394,393,455,511,485,453,346,400,401,533,422,391,340,244,115,176,6924,-34.554795,150.786947
New South Wales,10703,"Kiama , Shellharbour",107031138,Kiama,407,453,476,430,390,406,393,408,442,503,525,610,634,679,634,456,283,338,8467,-34.671698,150.849093
New South Wales,10703,"Kiama , Shellharbour",107031139,"Kiama Downs, Minnamurra",388,372,429,372,347,280,289,375,369,404,358,443,523,427,328,223,135,137,6199,-34.641853,150.849477
New South Wales,10703,"Kiama , Shellharbour",107031140,"Kiama Hinterland, Gerringong",376,540,549,535,495,372,405,438,486,540,516,644,655,669,515,386,215,243,8579,-34.671698,150.849093
New South Wales,10703,"Kiama , Shellharbour",107031141,"Shellharbour, Flinders",1190,1387,1528,1365,1211,1072,1166,1334,1377,1510,1224,1157,1012,866,726,477,277,235,19114,null,null
New South Wales,10703,"Kiama , Shellharbour",107031142,"Shellharbour, Oak Flats",644,580,673,675,700,585,651,579,578,688,635,748,706,621,520,322,281,251,10437,-34.578005,150.864977
New South Wales,10703,"Kiama , Shellharbour",107031143,Warilla,1266,1293,1256,1266,1403,1288,1267,1097,1082,1311,1209,1424,1353,1203,1201,924,677,561,21081,-34.552052,150.858302
New South Wales,10704,Wollongong,107041144,"Balgownie, Fairy Meadow",1222,1253,1198,1496,2078,1528,1438,1375,1253,1452,1313,1364,1272,1017,1019,803,653,750,22484,-34.38618,150.87638
New South Wales,10704,Wollongong,107041145,"Corrimal, Tarrawanna, Bellambi",959,993,987,834,1026,1053,1066,1012,966,1072,926,1126,994,845,696,534,394,576,16059,-34.365259,150.888269
New South Wales,10704,Wollongong,107041146,"Figtree, Keiraville",1210,1426,1469,1655,2262,1641,1329,1412,1394,1498,1204,1249,1058,958,883,700,578,573,22499,-34.436071,150.859292
New South Wales,10704,Wollongong,107041147,Helensburgh,691,691,579,617,599,546,577,601,685,728,631,708,543,356,312,200,98,127,9289,-34.201369,150.977383
New South Wales,10704,Wollongong,107041148,"Thirroul, Austinmer, Coalcliff",729,862,887,732,613,533,595,726,862,945,831,876,832,723,525,317,232,251,12071,-34.315317,150.922377
New South Wales,10704,Wollongong,107041150,"Woonona, Bulli, Russell Vale",1333,1605,1519,1375,1203,1048,1211,1454,1508,1616,1273,1354,1170,1064,863,656,427,471,21150,-34.33971,150.906838
New South Wales,10704,Wollongong,107041548,"Wollongong, Wollongong East",551,397,335,597,2530,2683,1447,941,741,718,855,897,866,742,770,544,457,428,16499,-34.428377,150.893892
New South Wales,10704,Wollongong,107041549,"Wollongong, Wollongong West",940,885,789,1033,2739,2283,1498,1108,953,1006,953,898,740,654,580,445,404,325,18233,-34.428377,150.893892
New South Wales,10801,Great Lakes,108011151,"Bulahdelah, Stroud",219,259,310,263,179,141,188,214,257,311,422,404,404,380,323,217,129,128,4748,-32.405673,152.209523
New South Wales,10801,Great Lakes,108011152,Forster,673,706,790,708,557,544,560,609,687,802,762,1002,1193,1364,1318,1021,721,813,14830,-32.220408,152.547653
New South Wales,10801,Great Lakes,108011153,"Forster,Tuncurry Region",248,348,427,354,225,157,229,248,325,435,433,602,601,618,545,330,190,142,6457,-32.220408,152.547653
New South Wales,10801,Great Lakes,108011154,Tuncurry,224,249,230,245,219,241,210,200,199,308,324,420,568,640,707,559,415,433,6391,-32.161756,152.486051
New South Wales,10802,"Kempsey , Nambucca",108021155,Kempsey,993,1036,1078,965,886,905,961,808,775,888,937,999,1065,948,807,571,378,378,15378,-31.076544,152.839218
New South Wales,10802,"Kempsey , Nambucca",108021156,Kempsey Region,470,503,543,466,395,246,369,361,457,574,638,911,966,831,627,334,214,221,9126,-31.076544,152.839218
New South Wales,10802,"Kempsey , Nambucca",108021157,"Macksville, Scotts Head",281,319,322,306,207,225,205,208,251,326,296,392,414,400,361,227,150,155,5045,-30.720059,152.918592
New South Wales,10802,"Kempsey , Nambucca",108021158,Nambucca Heads,322,354,345,311,250,225,230,258,290,329,388,525,569,607,657,479,298,380,6817,null,null
New South Wales,10802,"Kempsey , Nambucca",108021159,Nambucca Heads Region,400,433,543,501,305,298,312,348,345,497,540,767,759,641,564,299,216,137,7905,-30.645309,152.995589
New South Wales,10802,"Kempsey , Nambucca",108021160,South West Rocks,228,272,212,202,170,142,208,182,244,252,325,405,494,573,603,352,221,233,5318,null,null
New South Wales,10803,Lord Howe Island,108031161,Lord Howe Island,26,24,24,10,12,34,20,46,32,21,15,51,33,15,15,19,8,11,416,-31.560589,159.085907
New South Wales,10804,Port Macquarie,108041162,"Laurieton, Bonny Hills",672,888,963,954,540,567,593,719,775,1045,1132,1409,1486,1797,1714,1314,805,776,18149,-31.647833,152.796965
New South Wales,10804,Port Macquarie,108041163,"Port Macquarie, Port Macquarie East",1383,1850,2019,1727,1138,1352,1340,1520,1655,1977,1793,1985,2043,1886,1878,1511,1050,1146,29253,null,null
New South Wales,10804,Port Macquarie,108041164,"Port Macquarie, West",998,1045,1092,1090,1030,1064,1085,1026,899,1141,982,1187,1211,1260,1457,1157,811,935,19470,-31.463755,152.898783
New South Wales,10804,Port Macquarie,108041165,Port Macquarie Region,263,324,384,320,217,198,207,241,297,397,387,505,546,432,343,208,94,98,5461,-31.463755,152.898783
New South Wales,10804,Port Macquarie,108041166,Wauchope,687,899,926,799,531,575,592,658,633,792,772,807,802,752,723,491,340,326,12105,-31.468813,152.732985
New South Wales,10805,"Taree , Gloucester",108051167,Gloucester,252,267,295,297,201,173,178,224,231,306,318,424,418,459,444,301,200,184,5172,-32.019354,151.958529
New South Wales,10805,"Taree , Gloucester",108051168,"Old Bar, Manning Point, Red Head",576,701,649,571,341,361,453,456,575,730,626,864,974,1156,995,638,340,347,11353,-31.966488,152.584894
New South Wales,10805,"Taree , Gloucester",108051169,Taree,1225,1324,1358,1340,1138,1125,967,1049,1058,1210,1173,1406,1451,1296,1324,993,726,738,20901,-31.877858,152.438906
New South Wales,10805,"Taree , Gloucester",108051170,Taree Region,459,603,738,689,394,429,405,440,568,804,867,1196,1333,1343,1203,741,374,326,12912,-31.877858,152.438906
New South Wales,10805,"Taree , Gloucester",108051171,Wingham,332,342,374,310,288,249,279,273,245,272,388,381,435,367,311,280,160,207,5493,-31.886175,152.349123
New South Wales,10901,Albury,109011172,"Albury, Albury East",1304,1255,1164,1049,1217,1362,1199,1157,1041,1085,862,912,798,713,619,457,305,298,16797,-36.074771,146.914504
New South Wales,10901,Albury,109011173,"Albury, Albury North",717,617,640,683,739,749,576,603,612,665,672,663,614,514,456,342,234,253,10349,-36.074771,146.914504
New South Wales,10901,Albury,109011174,"Albury, Albury South",573,585,541,633,686,557,585,585,634,646,729,729,727,689,580,379,289,377,10524,-36.074771,146.914504
New South Wales,10901,Albury,109011175,Albury Region,708,926,1004,898,492,378,531,628,626,831,847,943,909,795,628,461,257,241,12103,-36.074771,146.914504
New South Wales,10901,Albury,109011176,Lavington,988,883,885,850,992,1017,992,862,845,888,780,987,965,925,788,635,408,394,15084,-36.043121,146.94093
New South Wales,10902,Lower Murray,109021177,Hay,164,164,204,194,174,162,152,148,117,183,202,280,207,171,163,121,101,67,2974,-34.509522,144.843538
New South Wales,10902,Lower Murray,109021178,"Wentworth, Buronga",400,419,457,363,315,275,264,316,322,417,389,455,461,396,392,252,145,126,6164,-34.105701,141.915422
New South Wales,10902,Lower Murray,109021179,"Wentworth, Balranald Region",241,246,246,184,190,215,204,199,182,234,241,313,307,215,157,115,95,71,3655,-34.105701,141.915422
New South Wales,10903,Upper Murray exc. Albury,109031180,Corowa,234,291,315,288,253,274,186,234,208,315,364,423,462,469,402,299,226,184,5427,-35.99334,146.383791
New South Wales,10903,Upper Murray exc. Albury,109031181,Corowa Region,386,470,448,362,262,227,255,361,334,432,416,536,507,568,574,358,275,215,6986,-35.99334,146.383791
New South Wales,10903,Upper Murray exc. Albury,109031182,Deniliquin,470,408,424,429,429,493,384,357,394,459,439,522,592,515,416,333,282,279,7625,-35.53374,144.972399
New South Wales,10903,Upper Murray exc. Albury,109031183,Deniliquin Region,355,462,495,338,245,219,239,307,354,410,443,643,588,525,415,311,203,183,6735,-35.53374,144.972399
New South Wales,10903,Upper Murray exc. Albury,109031184,Moama,337,429,384,366,249,314,323,368,333,413,333,354,388,461,568,377,226,191,6414,-36.107768,144.762281
New South Wales,10903,Upper Murray exc. Albury,109031185,"Tocumwal, Finley, Jerilderie",479,571,629,537,437,451,530,462,497,594,521,704,752,858,785,532,384,346,10069,-35.807909,145.577279
New South Wales,11001,Armidale,110011186,Armidale,1379,1386,1398,2302,2960,1656,1589,1369,1224,1350,1338,1453,1263,1057,920,792,567,581,24584,-30.51268,151.663934
New South Wales,11001,Armidale,110011187,"Armidale Region, Armidale Region North",256,304,355,264,228,234,236,229,265,312,274,347,350,288,282,171,80,97,4572,-30.51268,151.663934
New South Wales,11001,Armidale,110011188,"Armidale Region, Armidale Region South",297,367,478,390,286,229,219,262,387,399,440,526,476,423,384,271,114,129,6077,-30.51268,151.663934
New South Wales,11001,Armidale,110011189,Walcha,180,179,207,178,102,153,144,156,130,229,199,226,238,263,238,197,124,89,3232,-30.985999,151.588556
New South Wales,11002,"Inverell , Tenterfield",110021190,Glen Innes,434,520,558,501,375,407,414,484,451,537,494,696,705,644,626,460,286,279,8871,-29.742395,151.742544
New South Wales,11002,"Inverell , Tenterfield",110021191,Inverell,811,848,856,800,640,740,648,535,621,720,634,757,680,668,684,468,415,344,11869,-29.773192,151.114599
New South Wales,11002,"Inverell , Tenterfield",110021192,"Inverell Region, Inverell Region East",297,338,347,363,205,217,254,240,246,360,347,460,427,392,309,219,155,99,5275,-29.773192,151.114599
New South Wales,11002,"Inverell , Tenterfield",110021193,"Inverell Region, Inverell Region West",386,411,382,329,277,252,270,287,300,395,394,510,467,409,426,314,213,176,6198,-29.773192,151.114599
New South Wales,11002,"Inverell , Tenterfield",110021194,Tenterfield,285,366,390,359,162,201,183,260,334,405,408,618,629,701,593,326,220,154,6594,-29.048896,152.016228
New South Wales,11003,"Moree , Narrabri",110031195,Moree,646,621,552,398,515,571,583,454,479,530,516,573,469,404,376,262,186,143,8278,-29.465095,149.827527
New South Wales,11003,"Moree , Narrabri",110031196,Moree Region,468,490,419,298,347,328,361,333,302,347,421,375,337,255,220,128,65,37,5531,-29.465095,149.827527
New South Wales,11003,"Moree , Narrabri",110031197,Narrabri,503,602,497,409,411,520,487,405,398,430,436,530,437,408,304,246,177,130,7330,-30.33528,149.774409
New South Wales,11003,"Moree , Narrabri",110031198,Narrabri Region,361,359,383,302,211,212,283,259,278,252,320,407,330,292,239,174,99,83,4844,-30.33528,149.774409
New South Wales,11004,"Tamworth , Gunnedah",110041199,Gunnedah,764,758,657,500,559,690,704,562,509,514,508,600,530,439,423,329,327,245,9618,-30.98473,150.246044
New South Wales,11004,"Tamworth , Gunnedah",110041200,Gunnedah Region,230,244,296,236,212,174,175,218,223,290,303,330,336,243,194,155,92,73,4024,-30.98473,150.246044
New South Wales,11004,"Tamworth , Gunnedah",110041201,Quirindi,455,509,543,498,339,332,426,383,395,495,504,575,617,537,493,372,253,171,7897,-31.509556,150.680204
New South Wales,11004,"Tamworth , Gunnedah",110041202,"Tamworth, Tamworth East",1299,1357,1372,1387,1248,1554,1405,1123,1138,1259,1236,1322,1239,1139,994,792,573,519,20956,-31.092751,150.931684
New South Wales,11004,"Tamworth , Gunnedah",110041203,"Tamworth, Tamworth North",1187,1121,1062,1105,990,1307,1267,1077,838,955,907,848,836,733,675,567,428,512,16415,-31.092751,150.931684
New South Wales,11004,"Tamworth , Gunnedah",110041204,"Tamworth, Tamworth West",542,531,482,403,408,552,405,338,303,338,279,310,273,214,194,111,71,63,5817,-31.092751,150.931684
New South Wales,11004,"Tamworth , Gunnedah",110041205,Tamworth Region,1016,1342,1498,1191,683,722,964,1139,1140,1249,1284,1389,1386,1323,1116,760,490,397,19089,-31.092751,150.931684
New South Wales,11101,"Lake Macquarie , East",111011206,"Belmont, Bennetts Green",983,1139,1189,1197,1183,905,971,1010,1034,1209,1143,1190,1158,1169,974,676,546,624,18300,null,null
New South Wales,11101,"Lake Macquarie , East",111011207,"Belmont South, Blacksmiths",297,289,288,329,351,252,261,249,283,395,394,471,421,431,381,247,186,163,5688,-33.054437,151.660059
New South Wales,11101,"Lake Macquarie , East",111011208,"Charlestown, Dudley",1758,1663,1470,1271,1486,1564,1883,1862,1484,1548,1493,1469,1368,1172,1037,872,702,712,24814,-32.964237,151.697126
New South Wales,11101,"Lake Macquarie , East",111011209,"Glendale, Cardiff, Hillsborough",1616,1606,1560,1411,1444,1547,1781,1699,1535,1600,1445,1488,1286,1197,1137,687,507,527,24073,-35.12971,149.58489
New South Wales,11101,"Lake Macquarie , East",111011210,"Mount Hutton, Windale",560,619,675,619,581,563,569,502,471,618,555,656,526,452,425,347,225,210,9173,-32.982933,151.671287
New South Wales,11101,"Lake Macquarie , East",111011211,Redhead,170,241,248,226,205,154,103,151,228,305,196,257,281,229,213,131,112,143,3593,-33.009892,151.713811
New South Wales,11101,"Lake Macquarie , East",111011212,"Swansea, Caves Beach",605,741,729,642,611,444,484,635,677,738,775,910,951,896,811,658,405,478,12190,-33.088146,151.63347
New South Wales,11101,"Lake Macquarie , East",111011213,"Valentine, Eleebana",623,859,895,832,637,339,417,670,816,908,865,890,856,756,787,546,282,293,12271,-33.015115,151.63991
New South Wales,11101,"Lake Macquarie , East",111011214,"Warners Bay, Boolaroo",708,853,834,865,803,640,680,801,840,993,946,920,887,789,822,606,431,406,13824,null,null
New South Wales,11102,"Lake Macquarie , West",111021215,"Bolton Point, Teralba",492,513,547,548,495,484,463,501,478,584,568,690,564,497,475,342,223,227,8691,-32.994143,151.6109
New South Wales,11102,"Lake Macquarie , West",111021216,"Bonnells Bay, Silverwater",573,572,586,549,506,544,525,511,445,601,577,589,632,601,618,452,281,241,9403,null,null
New South Wales,11102,"Lake Macquarie , West",111021217,"Edgeworth, Cameron Park",1319,1302,1090,1014,871,1029,1324,1285,1090,1058,794,787,674,637,531,313,200,244,15562,-32.926088,151.61422
New South Wales,11102,"Lake Macquarie , West",111021218,"Morisset, Cooranbong",941,971,882,980,1071,987,870,824,826,954,953,1048,1041,973,932,706,613,687,16259,null,null
New South Wales,11102,"Lake Macquarie , West",111021219,"Toronto, Awaba",757,773,800,816,694,714,672,664,710,923,825,964,941,1051,915,663,423,492,13797,-33.017873,151.573849
New South Wales,11102,"Lake Macquarie , West",111021220,"Wangi Wangi, Rathmines",448,516,517,513,453,370,447,415,461,567,579,719,730,770,718,449,270,212,9154,-33.068902,151.574806
New South Wales,11102,"Lake Macquarie , West",111021221,"West Wallsend, Barnsley, Killingworth",494,475,414,449,393,425,495,441,456,437,424,466,437,409,311,131,100,70,6827,-32.90659,151.584208
New South Wales,11103,Newcastle,111031222,"Adamstown, Kotara",1022,1198,1083,996,883,936,1036,1177,1102,1198,981,873,778,695,653,552,453,453,16069,-32.936736,151.729979
New South Wales,11103,Newcastle,111031223,"Beresfield, Hexham",531,565,498,455,524,644,561,419,415,545,516,603,495,474,486,350,228,181,8490,-32.80413,151.640037
New South Wales,11103,Newcastle,111031224,"Hamilton, Broadmeadow",584,667,628,568,943,1206,883,826,711,879,835,846,773,646,510,340,267,358,12470,-32.922466,151.745056
New South Wales,11103,Newcastle,111031225,"Lambton, New Lambton",930,1182,1132,1003,1074,1026,1003,1143,1097,1320,1131,1118,1000,799,678,511,367,531,17045,-32.909446,151.705587
New South Wales,11103,Newcastle,111031226,"Maryland, Fletcher, Minmi",1083,1280,1246,1173,1107,1044,1164,1193,1221,1181,905,800,715,556,430,266,139,102,15605,-32.880784,151.661697
New South Wales,11103,Newcastle,111031227,"Mayfield, Warabrook",1051,894,805,563,1199,1541,1502,1239,906,949,875,944,868,705,524,388,298,235,15486,-32.89724,151.737285
New South Wales,11103,Newcastle,111031228,"Merewether, The Junction",706,872,901,740,964,1293,884,844,939,1047,897,1030,879,724,553,387,298,347,14305,-32.950075,151.755368
New South Wales,11103,Newcastle,111031229,"Newcastle, Cooks Hill",463,406,377,445,1323,1674,1140,832,667,729,760,811,851,691,504,327,211,167,12378,-32.9278,151.782607
New South Wales,11103,Newcastle,111031230,"Newcastle Port, Kooragang",1,1,0,0,0,0,2,2,0,1,1,2,1,1,2,3,0,0,17,-32.9278,151.782607
New South Wales,11103,Newcastle,111031231,"Shortland, Jesmond",708,580,448,1413,3254,1551,1006,724,493,465,370,470,340,300,289,279,223,285,13198,-32.876198,151.695685
New South Wales,11103,Newcastle,111031232,"Stockton, Fullerton Cove",444,505,399,339,379,454,507,490,422,496,497,653,638,734,653,445,292,247,8594,-32.902024,151.779011
New South Wales,11103,Newcastle,111031233,"Wallsend, Elermore Vale",1216,1229,1137,1111,1445,1559,1434,1275,1140,1192,1093,1186,1189,1078,1006,753,566,626,20235,-32.898807,151.650233
New South Wales,11103,Newcastle,111031234,"Waratah, North Lambton",712,657,604,671,1466,1315,1118,827,741,674,660,729,627,454,401,333,273,341,12603,-32.904382,151.722565
New South Wales,11103,Newcastle,111031235,"Wickham, Carrington, Tighes Hill",479,430,345,312,716,1004,921,683,504,593,521,522,501,366,269,185,107,111,8569,-32.916821,151.759992
New South Wales,11201,"Richmond Valley , Coastal",112011236,Ballina,836,841,868,914,769,798,859,914,884,1071,1015,1364,1340,1509,1365,1001,784,1047,18179,-28.854769,153.532296
New South Wales,11201,"Richmond Valley , Coastal",112011237,Ballina Region,837,1184,1267,1191,812,662,808,979,1009,1211,1255,1285,1282,1254,1017,748,514,581,17896,-28.854769,153.532296
New South Wales,11201,"Richmond Valley , Coastal",112011238,Bangalow,377,373,491,352,184,259,374,354,416,575,497,505,502,430,321,154,76,77,6317,-28.681983,153.525801
New South Wales,11201,"Richmond Valley , Coastal",112011239,"Brunswick Heads, Ocean Shores",460,543,513,464,359,316,485,553,674,753,575,698,738,646,434,253,189,194,8847,-28.539651,153.548386
New South Wales,11201,"Richmond Valley , Coastal",112011240,Byron Bay,529,516,507,461,540,915,934,762,804,677,617,793,797,697,510,285,162,178,10684,null,null
New South Wales,11201,"Richmond Valley , Coastal",112011241,Evans Head,252,318,333,311,227,184,228,277,289,336,341,458,455,397,386,245,209,204,5450,-29.115296,153.431198
New South Wales,11201,"Richmond Valley , Coastal",112011242,"Lennox Head, Skennars Head",503,592,587,576,342,290,401,505,557,680,589,684,619,547,439,234,144,157,8446,-28.809942,153.591285
New South Wales,11201,"Richmond Valley , Coastal",112011243,Mullumbimby,527,570,604,488,305,306,448,506,607,699,676,695,755,718,438,261,130,165,8898,-28.554666,153.499243
New South Wales,11202,"Richmond Valley , Hinterland",112021244,Casino,803,891,853,833,765,722,619,575,674,738,697,712,757,792,724,595,410,421,12581,-28.865134,153.044403
New South Wales,11202,"Richmond Valley , Hinterland",112021245,Casino Region,366,420,506,443,314,235,286,269,364,445,564,702,588,540,445,263,161,117,7028,28.66047,77.07733
New South Wales,11202,"Richmond Valley , Hinterland",112021246,Goonellabah,797,840,885,864,897,831,777,799,736,745,788,802,841,781,644,527,361,484,13399,-28.823354,153.319693
New South Wales,11202,"Richmond Valley , Hinterland",112021247,Kyogle,360,442,473,422,279,221,216,356,341,458,534,603,745,613,495,302,202,196,7258,-28.631585,153.00687
New South Wales,11202,"Richmond Valley , Hinterland",112021248,Lismore,773,861,975,838,1079,987,885,898,928,1060,975,1126,1031,894,586,496,377,408,15177,-28.810195,153.289347
New South Wales,11202,"Richmond Valley , Hinterland",112021249,Lismore Region,712,934,1052,1010,600,487,596,807,929,1248,1153,1469,1475,1250,822,455,267,223,15489,-28.810195,153.289347
New South Wales,11203,Tweed Valley,112031250,"Kingscliff, Fingal Head",799,997,1011,928,702,605,702,839,1032,1048,925,1079,1167,1070,870,575,421,379,15149,-28.265035,153.576892
New South Wales,11203,Tweed Valley,112031251,Murwillumbah,509,702,677,629,419,398,440,534,545,633,609,651,620,609,504,372,275,323,9449,-28.328196,153.389122
New South Wales,11203,Tweed Valley,112031252,Murwillumbah Region,502,578,699,562,319,300,466,498,534,689,742,965,1010,820,545,332,210,170,9941,-28.328196,153.389122
New South Wales,11203,Tweed Valley,112031253,Pottsville,931,1122,1047,798,498,578,686,891,922,1092,784,1041,1028,909,716,519,296,318,14176,-28.381771,153.562984
New South Wales,11203,Tweed Valley,112031254,Tweed Heads,1015,908,899,998,1160,1055,1045,1089,965,1233,1203,1357,1581,1519,1449,1114,818,997,20405,-28.181508,153.529624
New South Wales,11203,Tweed Valley,112031550,Banora Point,752,797,947,895,854,764,726,779,882,928,964,989,1072,1083,1173,966,748,795,16114,-28.221393,153.535909
New South Wales,11203,Tweed Valley,112031551,"Terranora, North Tumblegum",162,238,271,274,222,112,135,178,234,258,247,258,233,193,173,104,50,52,3394,-28.238859,153.505377
New South Wales,11203,Tweed Valley,112031552,Tweed Heads South,389,435,421,362,378,386,362,380,367,434,422,515,558,613,639,610,521,581,8373,-28.200005,153.535535
New South Wales,11301,"Griffith , Murrumbidgee West",113011256,Griffith ,1475,1360,1294,1284,1316,1704,1597,1311,1133,1165,1154,1170,1049,881,716,583,523,684,20399,-34.286686,146.04075
New South Wales,11301,"Griffith , Murrumbidgee West",113011257,Griffith Region,881,914,1063,844,759,785,773,709,763,937,916,969,908,656,520,345,240,212,13194,-34.286686,146.04075
New South Wales,11301,"Griffith , Murrumbidgee West",113011258,Leeton,683,667,802,936,559,654,565,509,534,612,598,729,626,490,467,371,269,248,10319,-34.554226,146.402108
New South Wales,11301,"Griffith , Murrumbidgee West",113011259,Narrandera,387,457,443,305,290,301,269,304,311,368,366,469,428,406,352,246,187,194,6083,-34.694654,146.680349
New South Wales,11302,"Tumut , Tumbarumba",113021260,Tumbarumba,234,187,200,184,132,169,192,197,169,224,225,269,286,259,205,162,106,81,3481,-35.775253,148.00843
New South Wales,11302,"Tumut , Tumbarumba",113021261,Tumut,414,410,444,358,324,354,353,380,355,380,396,448,417,362,333,251,159,179,6317,-35.317621,148.239825
New South Wales,11302,"Tumut , Tumbarumba",113021262,Tumut Region,232,302,303,248,192,215,235,208,260,309,299,365,406,368,305,220,132,115,4714,null,null
New South Wales,11303,Wagga Wagga,113031263,Cootamundra,371,457,537,412,332,355,312,354,374,464,421,538,602,585,544,450,283,281,7672,-34.638458,148.027763
New South Wales,11303,Wagga Wagga,113031264,Gundagai,206,230,258,269,209,153,178,199,184,220,232,250,231,237,187,142,134,103,3622,-35.062944,148.108958
New South Wales,11303,Wagga Wagga,113031265,Junee,366,392,391,323,387,505,507,451,437,460,378,458,442,369,291,211,112,117,6597,-34.865516,147.580012
New South Wales,11303,Wagga Wagga,113031266,Temora,391,437,450,408,325,337,393,289,335,389,455,520,469,500,442,340,258,217,6955,-34.443978,147.531076
New South Wales,11303,Wagga Wagga,113031267,"Wagga Wagga, Wagga Wagga East",1085,1226,1304,1202,987,993,1074,1032,986,1135,973,1035,988,928,818,589,391,347,17093,-35.108503,147.359497
New South Wales,11303,Wagga Wagga,113031268,"Wagga Wagga, Wagga Wagga North",351,322,304,389,854,498,381,379,244,273,249,211,184,126,95,99,93,116,5168,-35.108503,147.359497
New South Wales,11303,Wagga Wagga,113031269,"Wagga Wagga, Wagga Wagga South",1683,1537,1522,1491,1537,1658,1420,1393,1271,1387,1234,1265,1174,994,732,560,389,501,21748,null,null
New South Wales,11303,Wagga Wagga,113031270,"Wagga Wagga, Wagga Wagga West",776,770,611,768,1330,1298,1022,720,606,671,572,696,731,587,464,403,293,348,12666,-35.108503,147.359497
New South Wales,11303,Wagga Wagga,113031271,Wagga Wagga Region,1101,1183,1188,1004,747,890,986,860,865,984,979,1142,907,902,693,491,332,313,15567,-35.108503,147.359497
New South Wales,11401,Shoalhaven,114011272,"Berry, Kangaroo Valley",407,512,439,365,386,249,374,410,406,484,503,653,885,869,822,615,447,403,9229,-34.778961,150.691274
New South Wales,11401,Shoalhaven,114011273,"Callala Bay, Currarong",130,156,210,215,184,149,127,143,142,239,259,284,359,347,300,241,140,119,3744,-34.995785,150.720514
New South Wales,11401,Shoalhaven,114011274,Culburra Beach,256,224,234,235,246,193,197,254,229,261,287,466,433,421,401,347,217,221,5122,-34.928517,150.748839
New South Wales,11401,Shoalhaven,114011275,"Ettrema, Sassafras, Budawang",2,1,3,0,0,4,2,0,0,0,4,9,9,7,8,3,0,0,52,-32.494981,146.586903
New South Wales,11401,Shoalhaven,114011276,"Huskisson, Vincentia",246,250,192,167,170,230,221,191,273,265,277,377,437,407,368,269,132,161,4633,-35.042232,150.67136
New South Wales,11401,Shoalhaven,114011277,"North Nowra, Bomaderry",961,1097,1089,956,836,926,866,936,820,1029,873,1084,1184,1095,918,642,474,431,16217,-34.855826,150.583962
New South Wales,11401,Shoalhaven,114011278,Nowra,1483,1473,1382,1275,1563,1860,1494,1412,1211,1254,1194,1253,1033,1123,983,721,446,461,21621,-34.884583,150.60242
New South Wales,11401,Shoalhaven,114011279,"St Georges Basin, Erowal Bay",754,829,949,821,760,622,676,684,763,878,880,948,1043,1225,1219,846,577,448,14922,-35.09403,150.600362
New South Wales,11401,Shoalhaven,114011280,"Sussex Inlet, Berrara",197,161,193,165,149,141,174,151,180,210,236,358,447,464,475,343,229,233,4506,null,null
New South Wales,11401,Shoalhaven,114011281,"Tomerong, Wandandian, Woollamia",180,216,195,249,180,126,126,207,192,281,267,303,284,280,225,125,54,46,3536,-35.052846,150.587607
New South Wales,11401,Shoalhaven,114011282,Ulladulla,814,891,924,921,594,514,726,784,754,955,919,1191,1446,1427,1320,956,714,645,16495,-35.35646,150.461595
New South Wales,11401,Shoalhaven,114011283,Ulladulla Region,202,247,291,244,187,172,191,227,262,308,359,550,603,553,493,257,169,130,5445,-35.35646,150.461595
New South Wales,11402,Southern Highlands,114021284,Bowral,530,776,944,784,493,322,334,555,684,845,865,847,895,1028,1263,1032,680,682,13559,null,null
New South Wales,11402,Southern Highlands,114021285,"Hill Top, Colo Vale",451,468,489,436,381,372,421,436,352,467,475,454,337,306,272,170,89,57,6433,-34.353922,150.493174
New South Wales,11402,Southern Highlands,114021286,Mittagong,552,575,570,707,498,463,510,520,556,618,614,668,673,603,619,444,291,281,9762,-34.455134,150.448134
New South Wales,11402,Southern Highlands,114021287,"Moss Vale, Berrima",573,691,670,903,602,523,556,566,644,666,612,751,643,625,642,478,295,217,10657,null,null
New South Wales,11402,Southern Highlands,114021288,"Robertson, Fitzroy Falls",152,196,301,258,163,142,157,132,195,290,274,269,297,289,306,166,84,45,3716,null,null
New South Wales,11402,Southern Highlands,114021289,Southern Highlands,280,363,441,389,225,234,280,272,366,438,493,595,530,616,616,427,197,190,6952,-32.494981,146.586903
New South Wales,11501,Baulkham Hills,115011290,Baulkham Hills East,1749,2136,1729,1350,1145,1277,1691,2393,2047,1866,1417,1256,997,1062,1052,731,505,456,24859,-33.756656,150.978973
New South Wales,11501,Baulkham Hills,115011291,"Baulkham Hills West,  Baulkham Hills West Bella Vista",1077,1576,1519,1526,2033,1459,952,1502,1569,1532,1378,1493,1238,1147,860,523,320,231,21935,null,null
New South Wales,11501,Baulkham Hills,115011294,Glenhaven,232,429,515,458,463,338,224,259,376,411,445,435,380,395,345,345,246,220,6516,-33.699677,150.995862
New South Wales,11501,Baulkham Hills,115011296,West Pennant Hills,589,881,842,895,976,862,591,719,833,845,829,1085,1031,872,625,356,194,160,13185,-33.749846,151.030986
New South Wales,11501,Baulkham Hills,115011553,"Castle Hill, Castle Hill Central",500,674,519,468,453,426,515,697,656,606,441,435,394,365,353,259,139,105,8005,null,null
New South Wales,11501,Baulkham Hills,115011554,"Castle Hill, Castle Hill East",139,337,417,361,404,257,142,232,316,339,391,364,329,188,268,242,292,666,5684,-33.729026,150.999831
New South Wales,11501,Baulkham Hills,115011555,"Castle Hill, Castle Hill North",537,803,1015,936,854,632,540,699,827,997,893,849,806,732,567,383,244,235,12549,-33.729026,150.999831
New South Wales,11501,Baulkham Hills,115011556,"Castle Hill, Castle Hill South",611,783,779,667,652,573,544,824,799,759,617,571,575,535,478,316,221,131,10435,-33.729026,150.999831
New South Wales,11501,Baulkham Hills,115011557,"Castle Hill, Castle Hil West",262,374,446,437,459,302,268,340,392,452,398,407,346,235,217,101,52,41,5529,-33.729026,150.999831
New South Wales,11501,Baulkham Hills,115011558,Cherrybrook,798,1265,1637,1583,1373,867,672,1101,1383,1611,1380,1395,1236,1033,793,512,393,394,19426,-33.723169,151.044636
New South Wales,11501,Baulkham Hills,115011559,Kellyville,1622,2105,2118,2089,2024,1502,1583,2119,2246,2232,1760,1624,1278,983,788,494,268,123,26958,null,null
New South Wales,11502,"Dural , Wisemans Ferry",115021297,"Dural, Kenthurst, Wisemans Ferry",1105,1450,1666,1795,1552,1116,906,1092,1364,1739,1657,1586,1322,1181,1098,780,495,471,22375,-33.68333,151.01667
New South Wales,11502,"Dural , Wisemans Ferry",115021298,"Galston, Laughtondale",264,315,389,426,346,246,218,243,310,406,386,400,332,243,286,213,152,191,5366,-33.648819,151.043469
New South Wales,11503,Hawkesbury,115031299,"Bilpin, Colo, St Albans",137,169,145,179,151,130,126,115,187,221,248,248,199,159,190,106,44,51,2805,-33.5,150.53333
New South Wales,11503,Hawkesbury,115031300,"Kurrajong Heights, Ebenezer",1394,1530,1617,1697,1512,1363,1177,1284,1355,1793,1705,1605,1422,1181,917,590,292,264,22698,-33.531103,150.62329
New South Wales,11504,"Rouse Hill , McGraths Hill",115041301,"Pitt Town, McGraths Hill",761,895,869,789,813,585,761,671,748,914,735,715,642,466,452,317,190,148,11471,-33.584261,150.860389
New South Wales,11504,"Rouse Hill , McGraths Hill",115041302,"Rouse Hill,  Beaumont Hills",2431,2885,2714,2342,2120,1845,2337,2982,2762,2705,1864,1415,1121,828,586,371,206,167,31681,-33.680955,150.918588
New South Wales,11601,Blacktown,116011303,"Blacktown East, Blacktown East Kings Park",1721,1195,761,806,1237,1990,2296,1777,1085,922,786,804,733,600,477,354,240,276,18060,-33.775679,150.901784
New South Wales,11601,Blacktown,116011304,"Blacktown North, Blacktown North Marayong",1532,1384,1185,1099,1387,1681,1711,1708,1317,1131,986,994,949,922,699,421,342,362,19810,-33.775679,150.901784
New South Wales,11601,Blacktown,116011306,"Doonside, Woodcroft",1786,1684,1712,1819,1957,1822,2020,2039,1634,1581,1480,1480,1356,1091,732,401,233,214,25041,-33.771715,150.87488
New South Wales,11601,Blacktown,116011307,"Lalor Park, Kings Langley",1846,1825,1571,1476,1663,1746,1916,2084,1790,1704,1472,1593,1527,1330,957,593,468,507,26068,-33.760729,150.929858
New South Wales,11601,Blacktown,116011308,"Seven Hills, Toongabbie",1839,1794,1501,1455,1664,1877,2220,2389,1874,1653,1485,1336,1333,1172,1091,632,420,360,26095,-33.778576,150.934163
New South Wales,11601,Blacktown,116011560,Blacktown South,980,879,823,863,939,971,1040,1066,883,766,757,771,627,504,377,299,278,176,12999,-33.775679,150.901784
New South Wales,11601,Blacktown,116011561,Blacktown West,1298,1118,1000,1077,1367,1431,1422,1367,1048,999,961,955,809,552,476,394,370,348,16992,-33.775679,150.901784
New South Wales,11602,"Blacktown , North",116021309,Glenwood,958,1181,1350,1441,1466,1097,976,1276,1422,1378,1169,1002,742,571,438,265,142,83,16957,-33.45729,150.60163
New South Wales,11602,"Blacktown , North",116021310,"Parklea, Kellyville Ridge",2712,3336,2999,2308,2142,2089,2762,3853,3675,2922,1946,1607,1198,945,729,371,244,122,35960,-33.725609,150.91628
New South Wales,11602,"Blacktown , North",116021312,"Riverstone, Marsden Park",3324,3023,2309,1683,1787,2517,3705,3752,2500,1811,1347,1116,858,711,561,381,268,211,31864,-33.674035,150.87267
New South Wales,11602,"Blacktown , North",116021562,Acacia Gardens,252,334,302,239,262,267,304,345,352,293,236,247,164,145,87,60,32,20,3941,-33.733393,150.913897
New South Wales,11602,"Blacktown , North",116021563,Quakers Hill,1967,2046,1631,1553,1717,1559,2170,2348,1910,1599,1460,1253,1101,835,595,307,184,152,24387,null,null
New South Wales,11603,Mount Druitt,116031313,"Bidwill, Hebersham, Emerton",1684,1595,1497,1515,1446,1372,1241,1081,905,1152,1019,999,918,839,792,421,227,172,18875,-33.729584,150.821994
New South Wales,11603,Mount Druitt,116031314,"Glendenning, Dean Park",704,749,709,620,624,600,698,734,704,538,515,518,369,276,180,112,60,61,8771,-33.748391,150.854116
New South Wales,11603,Mount Druitt,116031315,"Hassall Grove, Plumpton",1593,1709,1615,1775,1890,1724,1660,1488,1427,1553,1471,1403,1062,736,434,265,157,159,22121,-33.731516,150.838788
New South Wales,11603,Mount Druitt,116031316,"Lethbridge Park, Tregear",2207,2112,1765,1583,1679,1742,1902,1714,1280,1235,1100,1024,865,727,726,542,307,217,22727,-33.737048,150.800579
New South Wales,11603,Mount Druitt,116031317,"Mount Druitt, Whalan",2224,2002,1739,1626,1725,1802,1967,1842,1511,1368,1310,1136,1037,812,768,477,325,259,23930,-33.770978,150.819827
New South Wales,11603,Mount Druitt,116031318,Prospect Reservoir,0,0,4,0,6,9,3,4,0,5,2,1,2,4,4,0,0,0,44,-37.712408,145.004061
New South Wales,11603,Mount Druitt,116031319,"Rooty Hill, Minchinbury",1624,1607,1423,1419,1783,1841,1752,1880,1413,1405,1349,1394,1186,925,733,414,215,275,22638,-33.774965,150.839788
New South Wales,11701,Botany,117011320,Banksmeadow,1,1,0,0,0,1,3,2,1,3,0,2,2,1,3,0,0,1,21,-33.953838,151.215973
New South Wales,11701,Botany,117011321,Botany,891,907,762,664,811,1084,1227,1198,1042,1023,745,755,528,475,356,235,169,166,13038,-33.946451,151.200454
New South Wales,11701,Botany,117011322,"Mascot, Eastlakes",1692,1358,1032,1546,2972,3578,3398,2579,1862,1604,1360,1335,1168,887,826,610,532,464,28803,null,null
New South Wales,11701,Botany,117011323,"Pagewood, Hillsdale, Daceyville",698,701,772,751,1002,1120,990,975,826,896,772,684,604,557,487,388,251,228,12702,-33.940086,151.219485
New South Wales,11701,Botany,117011324,Port Botany Industrial,0,0,0,1,1,0,0,1,0,1,2,0,0,0,1,0,0,0,7,null,null
New South Wales,11701,Botany,117011325,Sydney Airport,0,0,0,0,4,13,20,1,4,5,6,5,1,1,2,1,4,0,67,-33.934477,151.157157
New South Wales,11702,"Marrickville , Sydenham , Petersham",117021326,Marrickville,1543,1253,1170,1017,2238,3469,3268,2635,1945,2055,1595,1535,1268,1064,969,680,592,645,28941,-33.910964,151.155258
New South Wales,11702,"Marrickville , Sydenham , Petersham",117021327,"Petersham, Stanmore",1030,929,816,783,1846,3124,2621,2093,1600,1583,1341,1156,866,815,708,426,332,260,22329,-33.896077,151.154415
New South Wales,11702,"Marrickville , Sydenham , Petersham",117021328,"Sydenham, Tempe, St Peters",512,425,308,312,720,932,977,910,635,618,517,414,379,316,225,198,100,121,8619,-33.917308,151.168239
New South Wales,11703,Sydney Inner City,117031329,Darlinghurst,406,216,188,163,1002,2445,2105,1340,894,850,726,730,595,475,403,204,126,112,12980,-33.878132,151.219439
New South Wales,11703,Sydney Inner City,117031330,"Erskineville, Alexandria",1061,640,423,397,1281,3178,3124,2172,1569,1340,1085,780,669,474,346,213,145,119,19016,-33.90368,151.18567
New South Wales,11703,Sydney Inner City,117031331,"Glebe, Forest Lodge",955,624,491,864,2850,3401,2970,2100,1442,1307,1134,1188,1084,977,742,467,256,260,23112,-33.878226,151.185553
New South Wales,11703,Sydney Inner City,117031332,"Newtown, Camperdown, Darlington",973,738,663,1547,5191,4789,3466,2368,1792,1618,1305,1167,889,698,465,331,212,223,28435,-33.899678,151.177905
New South Wales,11703,Sydney Inner City,117031333,"Potts Point, Woolloomooloo",592,309,222,447,2381,4363,3939,2205,1637,1524,1269,1347,1212,947,816,525,319,387,24441,-33.86586,151.226254
New South Wales,11703,Sydney Inner City,117031334,"Pyrmont, Ultimo",885,463,363,1056,4823,4664,3337,2357,1356,1057,852,892,778,717,539,318,204,168,24829,-33.868846,151.192886
New South Wales,11703,Sydney Inner City,117031335,"Redfern, Chippendale",804,417,306,1129,5252,5256,3644,2435,1388,1182,1121,1037,794,720,563,381,296,219,26944,null,null
New South Wales,11703,Sydney Inner City,117031336,Surry Hills,584,318,178,239,1467,3541,3104,2002,1422,1225,988,857,722,577,446,259,245,239,18413,-33.885877,151.212781
New South Wales,11703,Sydney Inner City,117031337,"Sydney, Haymarket, The Rocks",930,418,304,1125,5761,7106,5310,3570,1779,1362,984,1063,901,779,698,392,265,214,32961,null,null
New South Wales,11703,Sydney Inner City,117031338,"Waterloo, Beaconsfield",2057,976,650,2050,6695,7450,6701,4160,2337,1861,1514,1470,1204,1077,898,637,432,436,42605,-36.47363,149.77385
New South Wales,11801,"Eastern Suburbs , North",118011339,"Bondi, Tamarama, Bronte",1200,1003,850,700,1210,2597,2689,1858,1370,1333,1118,944,798,683,631,389,330,313,20016,-33.893955,151.263686
New South Wales,11801,"Eastern Suburbs , North",118011340,"Bondi Beach, North Bondi",1513,1206,1004,785,1429,3131,3618,2612,1749,1561,1143,1022,769,741,652,387,266,333,23921,-33.889457,151.272274
New South Wales,11801,"Eastern Suburbs , North",118011341,"Bondi Junction, Waverly",1024,937,788,753,1063,2027,2179,1703,1284,1181,992,946,772,674,693,509,438,678,18641,-33.893278,151.251615
New South Wales,11801,"Eastern Suburbs , North",118011342,Centennial Park,0,0,0,0,0,0,0,0,0,1,1,1,0,0,0,0,0,0,3,null,null
New South Wales,11801,"Eastern Suburbs , North",118011343,"Double Bay, Bellevue Hill",1306,1239,1294,1300,1488,2599,2565,2008,1674,1700,1507,1496,1464,1392,1505,990,735,903,27165,-33.876562,151.242266
New South Wales,11801,"Eastern Suburbs , North",118011344,Dover Heights,757,745,778,647,635,698,788,960,914,892,722,718,585,548,504,304,215,307,11717,-33.873345,151.28134
New South Wales,11801,"Eastern Suburbs , North",118011345,"Paddington, Moore Park",918,717,635,487,1075,2265,2063,1549,1260,1072,1024,947,687,607,674,483,251,218,16932,-33.883833,151.228424
New South Wales,11801,"Eastern Suburbs , North",118011346,"Rose Bay, Vaucluse, Watsons Bay",541,811,1043,1020,792,665,579,701,771,981,866,844,699,594,652,435,290,354,12638,-33.873446,151.271414
New South Wales,11801,"Eastern Suburbs , North",118011347,Woollahra,441,470,378,321,415,747,726,667,529,483,491,494,427,410,458,388,222,315,8382,-33.885453,151.241453
New South Wales,11802,"Eastern Suburbs , South",118021348,"Coogee, Clovelly",1729,1626,1392,1153,1570,2961,3238,2678,2106,1935,1674,1486,1264,1115,997,632,445,449,28450,-33.918384,151.253698
New South Wales,11802,"Eastern Suburbs , South",118021350,"Malabar, La Perouse, Chifley",1407,1526,1480,1682,1856,1873,1697,1803,1895,1953,1802,1710,1427,1322,1186,923,613,666,26821,-33.958669,151.255486
New South Wales,11802,"Eastern Suburbs , South",118021564,Kensington ,616,522,407,1914,4708,2546,1380,1034,730,582,561,537,411,362,308,229,208,223,17278,-33.911221,151.219501
New South Wales,11802,"Eastern Suburbs , South",118021565,Kingsford,508,583,507,1110,4599,3170,1044,785,664,761,635,616,489,394,399,314,273,247,17098,-33.929724,151.233966
New South Wales,11802,"Eastern Suburbs , South",118021566,"Maroubra, Maroubra North",508,610,557,594,793,988,786,777,732,775,611,621,563,444,380,298,311,364,10712,-33.944809,151.245905
New South Wales,11802,"Eastern Suburbs , South",118021567,"Maroubra, Maroubra South",687,524,510,565,730,972,970,1055,828,792,649,571,605,511,462,384,246,305,11366,-33.944809,151.245905
New South Wales,11802,"Eastern Suburbs , South",118021568,"Maroubra, Maroubra West",616,547,511,674,1414,1427,904,866,651,669,556,544,459,385,358,302,201,225,11309,-33.944809,151.245905
New South Wales,11802,"Eastern Suburbs , South",118021569,"Randwick, Randwick North",1153,919,808,655,1230,1865,2126,1873,1354,1203,964,877,762,627,624,385,277,361,18063,-33.911304,151.242096
New South Wales,11802,"Eastern Suburbs , South",118021570,"Randwick, Randwick South",764,622,633,614,1457,1954,1667,1315,890,904,761,675,569,492,425,307,207,286,14542,-33.911304,151.242096
New South Wales,11901,Bankstown,119011354,"Bass Hill, Georges Hall",1776,1835,1812,1701,1707,1739,1511,1602,1455,1444,1331,1225,1070,961,957,685,483,488,23782,-33.898314,150.996953
New South Wales,11901,Bankstown,119011355,Chullora,146,115,71,66,116,203,195,187,126,71,78,70,64,49,38,13,10,11,1629,-33.891659,151.047284
New South Wales,11901,Bankstown,119011356,Condell Park,1013,1032,942,945,987,944,930,884,788,772,672,642,576,438,429,304,221,220,12739,-33.924585,151.012502
New South Wales,11901,Bankstown,119011357,"Greenacre, Mount Lewis",2121,2302,2374,2106,2129,2038,1867,1847,1669,1597,1578,1546,1348,1054,910,659,527,583,28255,-33.9007,151.055243
New South Wales,11901,Bankstown,119011358,Padstow,1011,1017,991,1039,1245,1298,1284,1181,1075,1176,1127,1256,977,851,655,470,430,584,17667,-33.948778,151.033498
New South Wales,11901,Bankstown,119011359,"Panania, Milperra, Picnic Point",1806,2011,1821,1712,1828,1755,1806,2046,1920,1984,1712,1731,1520,1219,1085,750,585,643,27934,-33.950037,150.998367
New South Wales,11901,Bankstown,119011360,Revesby,1183,1127,1049,991,1263,1427,1322,1247,1133,1120,1069,1078,982,775,608,427,388,457,17646,-33.94587,151.014593
New South Wales,11901,Bankstown,119011361,"Yagoona, Birrong",1672,1651,1493,1507,1749,1885,1731,1590,1222,1339,1236,1297,1212,965,731,474,393,528,22675,-33.904117,151.018248
New South Wales,11901,Bankstown,119011571,"Bankstown, Bankstown North",1630,1314,925,907,1333,1759,1788,1411,1034,963,842,936,775,652,508,323,275,299,17674,-33.919862,151.031965
New South Wales,11901,Bankstown,119011572,"Bankstown, Bankstown South",1413,1029,948,1012,1397,1581,1461,1154,1030,961,930,932,920,692,506,357,252,291,16866,-33.919862,151.031965
New South Wales,11902,Canterbury,119021362,"Belmore, Belfield",1317,1266,1158,1095,1386,1579,1588,1444,1269,1397,1228,1270,1010,893,775,609,512,469,20265,-33.918616,151.090115
New South Wales,11902,Canterbury,119021363,"Canterbury South, Canterbury South Campsie",2185,1486,1425,1747,3154,3824,3789,2708,2012,1991,1766,1984,1688,1213,955,787,641,619,33974,-33.913932,151.116102
New South Wales,11902,Canterbury,119021364,"Kingsgrove North, Kingsgrove North Earlwood",1398,1576,1526,1567,1540,1512,1511,1724,1837,1946,1766,1544,1319,1158,1134,973,788,800,25619,-33.939682,151.099018
New South Wales,11902,Canterbury,119021366,Punchbowl,1751,1586,1553,1570,1875,1912,1799,1615,1249,1287,1266,1235,1068,863,655,512,354,385,22535,-33.93099,151.048704
New South Wales,11902,Canterbury,119021367,Roselands,982,1094,1042,933,958,1068,1076,998,946,1031,1001,838,756,629,541,410,298,354,14955,-33.934649,151.073829
New South Wales,11902,Canterbury,119021573,Lakemba,1995,1624,1070,821,1229,1937,1902,1697,1207,896,798,734,659,530,377,301,188,309,18274,-33.918735,151.07657
New South Wales,11902,Canterbury,119021574,Wiley Park,1123,895,583,558,918,1264,1183,986,661,547,496,483,420,340,283,172,117,93,11122,-33.925447,151.067243
New South Wales,11903,Hurstville,119031368,Hurstville,1349,1214,1124,1425,3092,3735,2790,1986,1347,1348,1286,1364,1333,975,789,582,459,480,26678,-33.96043,151.100679
New South Wales,11903,Hurstville,119031369,"Mortdale, Penshurst",1553,1504,1243,1415,1850,2189,2301,2051,1701,1623,1473,1574,1434,1059,890,636,457,574,25527,-33.965746,151.073751
New South Wales,11903,Hurstville,119031370,"Narwee, Beverly Hills",840,876,767,774,1113,1216,1128,1062,867,928,900,984,847,715,577,376,367,456,14793,-33.945384,151.068736
New South Wales,11903,Hurstville,119031371,"Oatley, Hurstville Grove",646,801,815,876,971,972,754,710,837,992,893,963,785,681,560,406,272,368,13302,-33.98198,151.08046
New South Wales,11903,Hurstville,119031372,"Peakhurst, Lugarno",1032,1233,1212,1255,1272,1147,1046,1186,1181,1294,1228,1256,1109,904,955,716,632,720,19378,-33.962439,151.056043
New South Wales,11903,Hurstville,119031373,Riverwood,704,628,589,675,859,1158,1176,866,737,714,739,837,764,656,480,388,342,311,12623,-33.947112,151.053284
New South Wales,11903,Hurstville,119031374,"South Hurstville, Blakehurst",1279,1368,1385,1658,2557,2759,1983,1651,1460,1571,1588,1513,1342,1109,936,732,532,635,26058,-33.977765,151.105499
New South Wales,11904,"Kogarah , Rockdale",119041375,"Arncliffe , Bardwell Valley",1706,1072,880,1097,2683,4659,4456,2756,1597,1228,1064,1043,978,774,646,453,303,330,27725,null,null
New South Wales,11904,"Kogarah , Rockdale",119041376,Bexley,1879,1655,1517,1485,2135,2516,2694,2280,1903,1612,1542,1626,1400,1272,986,689,619,703,28513,-33.95324,151.121686
New South Wales,11904,"Kogarah , Rockdale",119041377,"Kingsgrove South, Kingsgrove South Bardwell Park",678,804,786,824,954,907,1022,880,905,985,824,887,696,645,610,462,397,409,13675,-33.939682,151.099018
New South Wales,11904,"Kogarah , Rockdale",119041378,Kogarah,816,607,476,544,1104,1651,1582,1167,783,691,623,632,482,426,356,261,227,267,12695,-33.981172,151.111293
New South Wales,11904,"Kogarah , Rockdale",119041379,"Kogarah Bay , Carlton , Allawah",1014,882,858,885,1249,1711,1689,1332,1012,1096,1029,1050,928,742,635,457,325,339,17233,-33.982487,151.1238
New South Wales,11904,"Kogarah , Rockdale",119041380,"Monterey , Brighton,le,Sands , Kyeemagh",880,756,807,727,856,1091,1211,1191,1070,1148,1062,920,743,826,700,538,465,408,15399,-33.972458,151.147597
New South Wales,11904,"Kogarah , Rockdale",119041381,"Rockdale , Banksia",1307,926,729,945,2080,3138,2834,2030,1312,1178,1017,1059,904,802,652,488,356,562,22319,-33.953231,151.140459
New South Wales,11904,"Kogarah , Rockdale",119041382,"Sans Souci , Ramsgate",954,948,942,834,890,958,1096,1144,1117,1333,1196,1173,1020,951,873,730,556,615,17330,-33.995899,151.131864
New South Wales,12001,Canada Bay,120011383,"Concord , Mortlake , Cabarita",1325,1351,1327,1242,1325,1600,1631,1695,1675,1765,1579,1628,1457,1250,1122,823,602,636,24033,-33.857487,151.10396
New South Wales,12001,Canada Bay,120011384,"Concord West, North Strathfield",1749,1186,1015,1107,3190,4256,3650,2541,1571,1338,1122,1120,1038,788,620,415,257,321,27284,-33.844261,151.09039
New South Wales,12001,Canada Bay,120011385,"Drummoyne , Rodd Point",1133,1127,1117,881,958,1268,1528,1490,1466,1451,1358,1228,1102,953,925,587,447,685,19704,-33.852859,151.153011
New South Wales,12001,Canada Bay,120011386,"Five Dock , Abbotsford",1457,1274,1172,937,1123,1294,1707,1931,1747,1692,1510,1394,1125,1039,938,718,555,614,22227,-33.867526,151.129262
New South Wales,12002,Leichhardt,120021387,Balmain,1042,1043,908,704,708,1149,1237,1468,1398,1506,1239,1180,1021,961,843,467,247,213,17334,-33.859213,151.181732
New South Wales,12002,Leichhardt,120021388,"Leichhardt , Annandale",2059,1875,1421,1089,1595,2529,2689,2763,2413,2317,1819,1513,1287,1183,911,589,420,402,28874,-33.881842,151.153756
New South Wales,12002,Leichhardt,120021389,"Lilyfield , Rozelle",1121,911,770,541,653,968,1377,1626,1463,1328,1050,931,746,642,504,303,185,183,15302,-33.869445,151.161234
New South Wales,12003,"Strathfield , Burwood , Ashfield",120031390,Ashfield,1328,979,851,998,2694,3835,3306,2201,1559,1486,1318,1408,1162,989,855,616,530,595,26710,-33.888031,151.124724
New South Wales,12003,"Strathfield , Burwood , Ashfield",120031391,"Burwood , Croydon",1103,1029,964,1474,4126,4187,2745,1675,1335,1402,1348,1493,1270,978,825,593,569,723,27839,-33.877938,151.103664
New South Wales,12003,"Strathfield , Burwood , Ashfield",120031392,"Canterbury North,  Canterbury North Ashbury",662,670,615,605,735,1019,1069,968,887,826,772,746,599,456,439,339,255,185,11847,-33.913932,151.116102
New South Wales,12003,"Strathfield , Burwood , Ashfield",120031393,"Croydon Park , Enfield",1007,1013,986,1068,1261,1387,1432,1373,1153,1271,1198,1204,899,849,725,545,452,472,18295,-33.897001,151.104528
New South Wales,12003,"Strathfield , Burwood , Ashfield",120031394,"Dulwich Hill , Lewisham",1063,925,830,714,1415,1983,1883,1722,1445,1368,1181,1052,930,658,590,437,333,297,18826,-33.903478,151.139603
New South Wales,12003,"Strathfield , Burwood , Ashfield",120031395,"Haberfield , Summer Hill",664,824,810,744,868,1252,1268,1184,1030,1138,930,962,682,657,481,337,282,397,14510,-33.878886,151.139225
New South Wales,12003,"Strathfield , Burwood , Ashfield",120031396,Homebush,1408,941,688,832,2036,3225,2958,1968,1092,919,765,710,691,484,279,250,193,174,19613,-33.863728,151.081747
New South Wales,12003,"Strathfield , Burwood , Ashfield",120031575,Strathfield,1100,1053,1154,1604,3471,4305,2994,1799,1286,1353,1510,1416,1216,1022,878,655,536,728,28080,-33.881305,151.083627
New South Wales,12003,"Strathfield , Burwood , Ashfield",120031576,Strathfield South,226,240,208,237,306,364,328,319,281,258,223,225,213,152,141,105,58,59,3943,-33.894136,151.074138
New South Wales,12101,"Chatswood , Lane Cove",121011398,"Chatswood East, Chatswood East Artarmon",1855,2105,1700,1613,2506,3046,3080,3129,2459,2006,1621,1457,1224,1124,1013,634,494,712,31778,null,null
New South Wales,12101,"Chatswood , Lane Cove",121011399,"Chatswood West, Chatswood West Lane Cove North",1488,1472,1153,1043,1353,2104,2642,2432,1756,1480,1211,1149,1050,882,712,495,352,460,23234,null,null
New South Wales,12101,"Chatswood , Lane Cove",121011400,"Lane Cove , Greenwich",1880,1930,1794,1766,1619,1903,2392,2379,2265,2060,1816,1654,1481,1226,1156,816,608,792,29537,-33.815863,151.16721
New South Wales,12101,"Chatswood , Lane Cove",121011401,"St Leonards , Naremburn",889,614,388,289,584,1217,1704,1503,1016,839,582,564,525,444,347,216,117,135,11973,null,null
New South Wales,12101,"Chatswood , Lane Cove",121011402,"Willoughby, Castle Cove, Northbridge",1539,2146,2248,1865,1464,1153,1035,1720,2084,2369,1936,1780,1421,1268,1115,795,556,687,27181,-33.806698,151.199186
New South Wales,12102,Hornsby,121021403,"Asquith , Mount Colah",1197,1483,1515,1308,1250,1053,1107,1438,1584,1583,1295,1340,1127,870,719,526,319,322,20036,null,null
New South Wales,12102,Hornsby,121021404,"Berowra , Brooklyn , Cowan",720,934,940,866,684,481,550,783,924,1058,876,842,689,516,555,345,181,141,12085,-33.555588,151.206304
New South Wales,12102,Hornsby,121021406,"Normanhurst,Thornleigh, Westleigh",1112,1455,1326,1442,1185,770,826,1349,1441,1563,1359,1262,996,853,826,654,452,362,19233,-33.723422,151.096348
New South Wales,12102,Hornsby,121021577,"Hornsby, Hornsby East",995,820,539,540,816,1216,1548,1433,1068,875,668,637,494,442,330,220,164,199,13004,-33.700687,151.092308
New South Wales,12102,Hornsby,121021578,"Hornsby, Hornsby West",709,835,709,626,660,591,730,897,946,875,728,695,592,542,483,358,198,248,11422,-33.700687,151.092308
New South Wales,12102,Hornsby,121021579,"Waitara, Waitara Wahroonga West",774,856,602,424,508,735,1084,1311,956,686,522,476,456,428,281,248,226,261,10834,-33.709056,151.107098
New South Wales,12103,"Ku,ring,gai",121031407,"Gordon , Killara",1026,1430,1751,1993,1717,1247,1227,1475,1497,1768,1533,1563,1203,993,954,669,497,724,23267,-33.756126,151.150581
New South Wales,12103,"Ku,ring,gai",121031408,"Lindfield , Roseville",1225,1955,2059,1877,1595,1393,1228,1707,1820,2013,1764,1610,1248,1115,1031,707,595,653,25595,-33.780499,151.161351
New South Wales,12103,"Ku,ring,gai",121031409,Pymble,881,1446,1477,1421,1155,700,615,1131,1300,1465,1374,1194,847,796,651,483,294,443,17673,-33.744725,151.140658
New South Wales,12103,"Ku,ring,gai",121031410,St Ives,1113,1833,1717,1514,1211,758,710,1429,1593,1815,1490,1316,1157,995,995,882,679,778,21985,-33.728832,151.170804
New South Wales,12103,"Ku,ring,gai",121031411,Turramurra,944,1459,1597,1451,1129,735,694,1072,1393,1605,1469,1308,1019,919,948,817,716,1153,20428,-33.723382,151.13662
New South Wales,12103,"Ku,ring,gai",121031412,"Wahroonga East, Wahroonga East Warrawee",826,1173,1377,1895,1395,720,631,973,1116,1480,1422,1246,958,840,804,593,464,616,18529,-33.722063,151.112506
New South Wales,12104,"North Sydney , Mosman",121041413,"Cremorne , Cammeray",1303,1080,927,724,781,1605,2215,1978,1577,1505,1244,1150,1185,1066,1022,660,403,356,20781,-33.826397,151.226579
New South Wales,12104,"North Sydney , Mosman",121041414,"Crows Nest , Waverton",1290,815,583,508,897,2169,2776,2213,1488,1300,1111,1039,922,814,733,493,305,293,19749,-33.825913,151.203643
New South Wales,12104,"North Sydney , Mosman",121041415,Mosman,1521,1879,1977,1802,1590,1588,2002,2122,2136,2258,2189,2114,1710,1564,1646,1156,788,939,30981,-33.829705,151.24157
New South Wales,12104,"North Sydney , Mosman",121041416,"Neutral Bay , Kirribilli",925,702,559,508,963,2399,2490,1984,1416,1127,1020,1090,1025,893,826,656,409,497,19489,-33.834865,151.217798
New South Wales,12104,"North Sydney , Mosman",121041417,"North Sydney , Lavender Bay",602,349,331,445,855,1627,1604,1227,846,770,705,773,603,631,526,335,196,139,12564,-33.836767,151.2077
New South Wales,12201,Manly,122011418,"Balgowlah , Clontarf , Seaforth",1284,1771,1803,1458,1114,915,966,1208,1730,1930,1660,1452,1093,903,832,610,413,455,21597,-33.794767,151.260717
New South Wales,12201,Manly,122011419,"Manly , Fairlight",1511,1052,954,906,1347,2315,2966,2522,1624,1517,1382,1384,1246,1057,964,727,431,540,24445,-33.812592,151.296542
New South Wales,12202,Pittwater,122021420,"Avalon , Palm Beach",588,906,875,850,714,562,405,605,728,947,896,1100,978,911,794,561,282,361,13063,-33.04535,147.34574
New South Wales,12202,Pittwater,122021421,"Bayview , Elanora Heights",500,742,748,751,649,439,401,537,641,828,798,841,748,689,696,550,406,404,11368,-33.662424,151.291288
New South Wales,12202,Pittwater,122021422,"Newport , Bilgola",655,906,1028,952,806,702,607,601,857,1093,1062,1128,974,799,757,513,272,250,13962,-33.657735,151.316891
New South Wales,12202,Pittwater,122021423,"Warriewood , Mona Vale",1560,1975,1792,1591,1502,1335,1275,1747,1954,2004,1721,1645,1389,1306,1248,870,622,638,26174,-33.688696,151.294127
New South Wales,12203,Warringah,122031424,"Beacon Hill , Narraweena",848,1038,1036,1026,957,754,774,970,1058,1172,1035,1012,776,612,593,494,452,392,14999,-33.752772,151.257688
New South Wales,12203,Warringah,122031425,Cromer,466,568,608,558,463,364,302,471,578,674,575,438,417,354,372,308,227,277,8020,-33.728431,151.265556
New South Wales,12203,Warringah,122031426,"Dee Why, North Curl Curl",1886,1382,1313,1250,1696,2446,2948,2645,2078,2038,1737,1597,1304,1012,821,638,461,480,27732,-33.752429,151.286621
New South Wales,12203,Warringah,122031427,"Forestville , Killarney Heights",670,1135,1233,1104,804,412,383,694,1085,1197,977,820,575,479,497,511,470,481,13527,-33.759133,151.2134
New South Wales,12203,Warringah,122031428,"Frenchs Forest , Belrose",1445,2016,2172,1934,1549,956,844,1476,1949,2251,1957,1603,1230,1136,1306,1074,754,791,26443,-33.747687,151.22849
New South Wales,12203,Warringah,122031429,"Freshwater , Brookvale",1558,1410,1312,1198,1163,1895,2317,2316,1865,1867,1480,1307,1086,893,695,416,287,381,23446,-33.774365,151.283721
New South Wales,12203,Warringah,122031430,"Manly Vale , Allambie Heights",1162,1560,1443,1104,918,953,991,1345,1598,1546,1166,1018,812,683,666,477,334,495,18271,-33.782812,151.270901
New South Wales,12203,Warringah,122031431,"Narrabeen , Collaroy",1564,1560,1470,1577,1573,1780,1848,1965,1852,1919,1718,1662,1368,1191,1061,875,589,991,26563,-33.720566,151.285398
New South Wales,12203,Warringah,122031432,"Terrey Hills , Duffys Forest",189,255,316,293,260,170,168,176,235,320,332,277,216,179,208,151,97,47,3889,-33.697272,151.229684
New South Wales,12301,Camden,123011433,"Camden , Ellis Lane",864,916,1037,842,793,788,768,789,875,878,835,771,752,685,644,427,319,452,13435,null,null
New South Wales,12301,Camden,123011434,"Elderslie , Harrington Park",1818,2092,2064,1883,1697,1544,1821,1955,1929,1910,1467,1340,1070,807,685,401,304,212,24999,-34.057562,150.715838
New South Wales,12301,Camden,123011435,"Mount Annan , Currans Hill",2921,2798,2464,2494,2359,2554,2876,2669,2393,2473,1912,1670,1219,979,699,424,207,175,33286,-34.065559,150.762622
New South Wales,12302,Campbelltown,123021436,"Bradbury , Wedderburn",1707,1522,1416,1340,1476,1620,1421,1356,1298,1157,1042,1137,899,911,803,458,279,191,20033,null,null
New South Wales,12302,Campbelltown ,123021437,"Campbelltown , Woodbine",1471,1349,1236,1166,1703,1876,1843,1588,1315,1226,988,1069,946,854,836,541,451,431,20889,-34.067068,150.820135
New South Wales,12302,Campbelltown ,123021438,"Claymore , Eagle Vale , Raby",1695,1584,1516,1492,1554,1568,1550,1536,1289,1252,1226,1375,1255,906,584,295,207,162,21046,-34.046917,150.810009
New South Wales,12302,Campbelltown,123021439,Holsworthy Military Area,0,0,0,0,0,0,0,0,0,0,0,0,0,0,0,0,0,0,0,null,null
New South Wales,12302,Campbelltown ,123021440,"Ingleburn , Denham Court",2109,1970,1480,1345,1585,1982,2286,2250,1640,1368,1296,1385,1213,950,738,405,298,289,24589,-34.002495,150.861309
New South Wales,12302,Campbelltown,123021441,"Leumeah , Minto Heights",1154,1128,1070,1058,1129,1185,1309,1274,1091,1004,951,926,992,1017,817,486,293,211,17095,-34.055915,150.833589
New South Wales,12302,Campbelltown ,123021442,"Macquarie Fields , Glenfield",1879,1932,1714,1690,1787,1661,1933,2207,1713,1542,1431,1392,1237,1042,818,538,303,263,25082,-33.992556,150.892682
New South Wales,12302,Campbelltown ,123021443,"Minto , St Andrews",1658,1829,1561,1531,1649,1606,1759,1806,1487,1310,1279,1375,1155,939,618,356,164,179,22261,-34.030783,150.84817
New South Wales,12302,Campbelltown ,123021444,"Rosemeadow , Glen Alpine",1476,1556,1503,1555,1603,1616,1402,1371,1217,1302,1262,1490,1330,1093,819,463,233,147,21438,-34.104221,150.79302
New South Wales,12303,Wollondilly,123031445,Bargo,388,439,462,400,356,333,296,373,395,496,361,416,331,327,247,182,139,81,6022,-34.289386,150.58234
New South Wales,12303,Wollondilly,123031446,"Douglas Park , Appin",917,975,817,669,617,728,887,824,727,743,680,693,530,470,409,236,161,109,11192,-34.185219,150.706856
New South Wales,12303,Wollondilly,123031447,"Picton , Tahmoor , Buxton",1258,1303,1272,1265,1220,1148,1191,1079,1109,1253,1125,1170,984,889,724,488,309,342,18129,null,null
New South Wales,12303,Wollondilly,123031448,"The Oaks , Oakdale",553,698,806,765,615,579,554,591,628,800,590,636,571,577,412,188,134,89,9786,-34.079647,150.569475
New South Wales,12401,Blue Mountains,124011449,"Blackheath , Megalong Valley",281,318,326,238,191,167,262,324,332,407,409,491,492,522,472,305,167,121,5825,-33.63748,150.284031
New South Wales,12401,Blue Mountains,124011450,"Blaxland , Warrimoo , Lapstone",1174,1314,1427,1335,1132,952,991,1161,1362,1428,1231,1291,1192,1198,1011,653,372,297,19521,-33.746649,150.610886
New South Wales,12401,Blue Mountains,124011451,"Blue Mountains, Blue Mountains North",0,0,2,1,1,0,0,1,1,1,1,1,1,1,1,0,0,1,13,-33.685687,150.407402
New South Wales,12401,Blue Mountains,124011452,"Katoomba , Leura",549,626,695,784,929,650,626,731,823,997,921,1059,1202,1121,937,623,347,280,13900,-33.714793,150.30671
New South Wales,12401,Blue Mountains,124011453,"Lawson , Hazelbrook , Linden",631,784,784,774,606,512,619,654,734,893,815,943,770,757,559,335,216,164,11550,-33.721697,150.434012
New South Wales,12401,Blue Mountains,124011454,"Springwood , Winmalee",1233,1478,1547,1509,1278,831,1120,1285,1439,1672,1380,1474,1494,1320,1100,706,497,571,21934,-33.703877,150.562918
New South Wales,12401,Blue Mountains,124011455,Wentworth Falls,300,407,379,339,255,221,267,291,351,430,401,434,487,554,511,252,218,162,6259,-33.716143,150.3778
New South Wales,12402,"Blue Mountains , South",124021456,"Blue Mountains, Blue Mountains South",0,0,0,0,0,0,0,0,0,1,1,0,0,2,0,0,0,0,4,-33.685687,150.407402
New South Wales,12403,Penrith,124031457,Cambridge Park,1121,1184,1058,988,997,1304,1300,1233,1005,955,792,880,988,837,711,363,191,168,16075,-33.750149,150.726623
New South Wales,12403,Penrith,124031458,"Castlereagh , Cranebrook",2670,2409,1953,1784,1892,2651,2910,2495,1963,1753,1444,1399,1129,883,627,358,245,141,28706,-33.681557,150.676631
New South Wales,12403,Penrith,124031459,"Emu Plains , Leonay",842,965,1032,965,917,760,848,998,1066,1039,865,808,769,822,749,455,296,265,14461,-33.746709,150.665143
New South Wales,12403,Penrith,124031460,"Glenmore Park , Regentville",1520,1692,1766,1689,1644,1532,1495,1560,1621,1694,1394,1293,1025,759,548,271,196,120,21819,-33.788587,150.680036
New South Wales,12403,Penrith,124031461,"Jamisontown, Jamisontown South Penrith",1229,1279,1175,1072,1030,1269,1345,1379,1173,1139,942,939,967,973,804,507,319,219,17760,-33.768165,150.677813
New South Wales,12403,Penrith,124031462,"Kingswood , Werrington",2008,1661,1417,1344,1847,2037,2194,1913,1492,1400,1172,1001,887,765,651,429,249,251,22718,-33.765827,150.726139
New South Wales,12403,Penrith,124031463,"Mulgoa , Luddenham , Orchard Hills",895,840,863,777,802,770,889,924,730,793,681,666,535,442,382,247,136,125,11497,-33.838682,150.648506
New South Wales,12403,Penrith,124031464,Penrith,1030,825,713,692,1261,1542,1416,1131,886,891,838,855,678,606,579,437,327,401,15108,-33.746679,150.699109
New South Wales,12403,Penrith,124031465,"Warragamba , Silverdale",415,425,431,411,413,394,306,372,378,395,361,410,307,214,163,104,77,56,5632,-33.886855,150.603853
New South Wales,12404,"Richmond , Windsor",124041466,"Richmond , Clarendon",828,870,822,858,1157,1358,942,907,773,949,817,841,716,697,691,533,379,384,14522,-33.615264,150.761758
New South Wales,12404,"Richmond , Windsor",124041467,"Windsor , Bligh Park",1190,997,975,1002,1135,1411,1201,984,880,1055,1045,1042,782,608,458,312,255,175,15507,-33.611257,150.818057
New South Wales,12404,"Richmond , Windsor",124041468,"Yarramundi , Londonderry",372,431,545,495,594,632,522,550,572,598,545,535,392,371,280,135,91,79,7739,-33.631436,150.660271
New South Wales,12405,St Marys,124051469,Erskine Park,377,450,448,474,598,580,359,428,388,421,572,567,365,248,149,71,56,40,6591,-33.814019,150.798027
New South Wales,12405,St Marys,124051470,St Clair,1423,1461,1393,1384,1432,1503,1651,1471,1222,1305,1187,1444,1380,1029,648,311,164,157,20565,null,null
New South Wales,12405,St Marys,124051580,"Colyton , Oxley Park",1027,922,804,699,911,1137,1025,817,808,762,646,693,631,494,501,258,174,147,12456,-33.782368,150.796784
New South Wales,12405,St Marys,124051581,"St Marys, North St Marys",1454,1306,979,856,1249,1672,1503,1245,1050,1009,985,944,890,669,520,403,305,256,17295,-33.774201,150.775353
New South Wales,12501,Auburn,125011473,"Homebush Bay , Silverwater",1807,1234,855,805,1425,3009,4005,3373,2040,1585,1193,1042,810,616,462,221,103,102,24687,-33.863728,151.081747
New South Wales,12501,Auburn,125011475,Rookwood Cemetery,0,0,1,0,0,0,0,0,0,1,0,0,1,0,0,0,0,0,3,-33.870191,151.054973
New South Wales,12501,Auburn,125011582,"Auburn , Central",1503,1159,1040,1057,2102,2821,2224,1373,975,891,907,900,806,558,457,333,207,253,19566,-33.852402,151.027322
New South Wales,12501,Auburn,125011583,"Auburn, Auburn North",1010,746,432,475,1462,2205,1909,1144,705,595,491,543,455,297,250,175,103,93,13090,-33.852402,151.027322
New South Wales,12501,Auburn,125011584,"Auburn, Auburn South",777,642,617,650,802,917,868,630,536,472,502,515,442,303,248,151,108,162,9342,-33.852402,151.027322
New South Wales,12501,Auburn,125011585,Berala,731,568,424,523,738,1018,987,704,541,530,529,541,547,416,292,203,161,168,9621,-33.875124,151.031189
New South Wales,12501,Auburn,125011586,Lidcombe,1282,1091,806,1039,2290,3213,2718,1989,1240,1240,1173,1345,1238,818,612,430,251,280,23055,-33.856428,151.047812
New South Wales,12501,Auburn,125011587,Regents Park,353,327,332,317,442,432,425,368,302,326,319,339,347,256,174,136,90,82,5367,-33.883981,151.023409
New South Wales,12502,Carlingford,125021476,Carlingford,1752,2376,2025,1991,2006,1843,1995,2390,2099,2120,1846,1934,1626,1421,1223,991,750,802,31190,-33.777329,151.044841
New South Wales,12502,Carlingford,125021477,"Ermington , Rydalmere",1745,1607,1376,1339,1449,1740,2045,1912,1671,1677,1444,1517,1239,956,740,546,399,455,23857,-33.812085,151.059546
New South Wales,12502,Carlingford,125021478,"Oatlands , Dundas Valley",1192,1297,1152,1138,1344,1442,1393,1620,1265,1306,1274,1310,1047,888,605,520,381,362,19536,-33.795284,151.026948
New South Wales,12503,"Merrylands , Guildford",125031479,"Chester Hill , Sefton",1437,1520,1474,1494,1625,1616,1524,1333,1179,1240,1192,1201,1026,765,627,430,343,562,20588,-33.879225,151.000771
New South Wales,12503,"Merrylands , Guildford",125031480,"Fairfield, Fairfield East",1264,1136,1134,1152,1269,1310,1230,1120,962,1046,964,929,833,742,535,410,231,404,16671,-33.873318,150.953515
New South Wales,12503,"Merrylands , Guildford",125031481,"Granville , Clyde",1810,1337,1203,1248,2062,2701,2511,1784,1389,1194,1232,1156,1004,842,588,422,269,257,23009,-33.834113,151.009502
New South Wales,12503,"Merrylands , Guildford",125031482,"Greystanes , Pemulwuy",2003,2227,2060,1564,1663,1857,2000,2214,2118,1901,1684,1398,1280,1254,1318,907,544,407,28399,-33.823226,150.946074
New South Wales,12503,"Merrylands , Guildford",125031483,"Guildford, South Granville",2183,1860,1706,1519,1965,2185,2096,1639,1373,1190,1129,1169,1044,809,662,461,316,392,23698,-33.856022,150.994168
New South Wales,12503,"Merrylands , Guildford",125031484,"Guildford West , Merrylands West",1830,1636,1488,1330,1896,2186,1938,1748,1355,1257,1204,1135,1043,781,632,465,366,438,22728,-33.849417,150.96547
New South Wales,12503,"Merrylands , Guildford",125031485,"Merrylands , Holroyd",2656,2176,1758,1742,2513,3050,3148,2770,1989,1751,1671,1576,1338,1067,900,655,489,560,31809,-33.838486,150.984174
New South Wales,12503,"Merrylands , Guildford",125031486,Smithfield Industrial,0,0,0,0,1,1,2,3,1,1,0,1,0,1,0,0,0,0,11,-33.848841,150.938146
New South Wales,12503,"Merrylands , Guildford",125031487,Yennora Industrial,1,2,0,0,0,0,1,1,1,1,3,1,0,1,0,1,0,1,14,-33.861909,150.968398
New South Wales,12504,Parramatta,125041489,North Parramatta,1774,1454,1052,1134,1702,2607,3148,2819,1789,1416,1220,1191,1037,787,664,431,275,420,24920,-33.796729,151.00745
New South Wales,12504,Parramatta,125041490,North Rocks,503,685,578,491,490,430,400,634,641,591,479,462,495,413,448,366,164,128,8398,null,null
New South Wales,12504,Parramatta,125041491,Northmead,2158,1744,1084,816,1063,1820,3063,2796,1741,1215,899,830,740,698,599,449,312,482,22509,null,null
New South Wales,12504,Parramatta,125041492,"Parramatta , Rosehill",3075,1864,906,851,2377,5413,6463,4571,2034,1219,1162,1087,975,784,619,387,294,283,34364,-33.814115,151.005457
New South Wales,12504,Parramatta,125041493,"Toongabbie , Constitution Hill",1494,1491,1391,1361,1487,1678,1903,1758,1478,1493,1317,1362,1123,1007,940,759,637,630,23309,-33.787271,150.957584
New South Wales,12504,Parramatta,125041494,Winston Hills,813,918,817,665,606,502,653,922,906,849,635,634,474,464,621,411,244,193,11327,-33.7782,150.981971
New South Wales,12504,Parramatta,125041588,"Pendle Hill , Girraween",1027,1264,993,705,689,881,1240,1601,1218,806,698,671,553,488,406,303,247,273,14063,-33.805282,150.955192
New South Wales,12504,Parramatta,125041589,"Wentworthville, Westmead",1507,1458,942,768,1055,1571,2222,2242,1398,886,765,828,742,549,429,297,253,262,18174,-33.807544,150.967911
New South Wales,12601,"Pennant Hills , Epping",126011495,"Epping, North Epping",1531,2171,1954,1994,2701,2906,2371,2496,2135,1971,1722,1896,1593,1278,966,707,576,747,31715,-33.772079,151.076728
New South Wales,12601,"Pennant Hills , Epping",126011496,"Pennant Hills , Cheltenham",1137,1623,1526,1534,1572,1096,975,1346,1506,1663,1460,1433,1293,1090,925,664,553,624,22020,-33.741445,151.077419
New South Wales,12602,"Ryde , Hunters Hill",126021497,"Eastwood , Denistone",1381,1654,1375,1482,2431,2753,2046,2049,1616,1657,1488,1670,1629,1290,1024,696,554,655,27450,-33.788642,151.083479
New South Wales,12602,"Ryde , Hunters Hill",126021498,"Gladesville , Huntleys Point",895,956,928,837,903,1067,1139,1195,1137,1257,1042,935,865,735,647,480,345,428,15791,-33.826925,151.125167
New South Wales,12602,"Ryde , Hunters Hill",126021499,"Hunters Hill , Woolwich",459,686,933,1185,660,501,431,527,633,818,753,684,554,555,529,375,222,494,10999,-33.826202,151.13782
New South Wales,12602,"Ryde , Hunters Hill",126021500,"Macquarie Park , Marsfield",1268,1107,733,1349,3784,3171,2552,2224,1417,1092,939,932,898,822,658,479,446,681,24552,-33.780703,151.127921
New South Wales,12602,"Ryde , Hunters Hill",126021501,"North Ryde, East Ryde",861,894,815,765,956,1037,963,988,1064,940,913,889,755,644,469,408,357,435,14153,-33.798405,151.128397
New South Wales,12602,"Ryde , Hunters Hill",126021503,"West Ryde , Meadowbank",1402,1220,874,817,1402,2347,2844,2319,1520,1234,1096,1091,981,864,628,503,334,309,21785,-33.809421,151.084127
New South Wales,12602,"Ryde , Hunters Hill",126021590,Putney,181,264,306,352,327,270,166,194,243,296,374,347,276,206,157,108,76,104,4247,-33.826381,151.105335
New South Wales,12602,"Ryde , Hunters Hill",126021591,Ryde,2148,1835,1483,1471,2340,3170,3539,2934,2208,1960,1726,1590,1453,1162,992,726,638,822,32197,-33.81213,151.112349
New South Wales,12701,"Bringelly , Green Valley",127011504,"Ashcroft , Busby , Miller",1456,1509,1437,1500,1372,1255,1155,1134,1014,1032,1080,1162,992,684,495,458,406,262,18403,-33.916993,150.899054
New South Wales,12701,"Bringelly , Green Valley",127011505,"Austral , Greendale",498,562,635,646,711,599,517,563,504,635,586,526,534,500,457,279,185,193,9130,-33.928813,150.806319
New South Wales,12701,"Bringelly , Green Valley",127011506,"Cobbitty , Leppington",3544,2822,2106,1694,2046,3303,3894,2930,2120,1743,1360,1297,992,784,661,402,270,183,32151,-34.011739,150.67192
New South Wales,12701,"Bringelly , Green Valley",127011592,Badgerys Creek,0,5,5,5,4,7,4,2,5,2,3,3,2,3,2,4,3,3,62,-33.89075,150.74265
New South Wales,12701,"Bringelly , Green Valley",127011593,Cecil Hills,349,436,576,633,647,564,400,400,412,624,551,548,430,299,193,121,68,43,7294,-33.889627,150.852217
New South Wales,12701,"Bringelly , Green Valley",127011594,Green Valley,872,864,960,1074,1010,1010,873,869,829,832,864,971,758,533,351,239,143,114,13166,-35.46696,148.1126
New South Wales,12701,"Bringelly , Green Valley",127011595,Hinchinbrook,1000,1030,1067,1036,1139,974,959,1052,918,947,917,844,614,493,291,222,119,94,13716,null,null
New South Wales,12701,"Bringelly , Green Valley",127011596,"Hoxton Park , Carnes Hill , Horningsea Park",1049,1162,1094,1017,945,885,1084,1151,1071,921,788,698,539,359,260,122,107,51,13303,-33.931644,150.852958
New South Wales,12701,"Bringelly , Green Valley",127011597,"West Hoxton , Middleton Grange",1483,1559,1454,1333,1228,1240,1403,1507,1408,1315,1030,853,543,401,322,195,95,80,17449,-33.936153,150.837028
New South Wales,12702,Fairfield,127021509,"Bonnyrigg Heights , Bonnyrigg",913,1036,1270,1244,1433,1307,1038,1048,1023,1125,1103,1176,1061,802,561,346,213,216,16915,-33.891075,150.869942
New South Wales,12702,Fairfield,127021510,"Bossley Park , Abbotsbury",1041,1104,1319,1449,1529,1513,1136,1068,1166,1320,1240,1474,1280,1123,808,556,345,330,19801,-33.861217,150.884355
New South Wales,12702,Fairfield,127021511,"Cabramatta , Lansvale",1438,1438,1410,1718,2305,2170,1782,1558,1510,1757,1784,1769,1589,1216,831,586,436,599,25896,-33.897097,150.931143
New South Wales,12702,Fairfield,127021512,"Cabramatta West , Mount Pritchard",1206,1277,1260,1376,1469,1423,1242,1138,1111,1221,1220,1127,986,745,555,426,376,341,18499,-33.892584,150.914979
New South Wales,12702,Fairfield,127021513,"Canley Vale , Canley Heights",1327,1318,1529,1594,1893,1788,1455,1432,1258,1481,1408,1442,1361,927,669,506,324,451,22163,null,null
New South Wales,12702,Fairfield,127021514,Edensor Park,600,608,611,777,826,910,656,620,578,621,689,852,677,485,351,230,121,125,10337,-33.880021,150.877975
New South Wales,12702,Fairfield,127021515,Fairfield,1157,1208,1105,1341,1567,1474,1487,1246,1136,1317,1244,1205,1042,880,680,472,365,372,19298,-33.873318,150.953515
New South Wales,12702,Fairfield,127021516,"Fairfield, West",1327,1313,1413,1612,1710,1644,1366,1290,1213,1323,1277,1229,1059,841,781,625,401,351,20775,-33.873318,150.953515
New South Wales,12702,Fairfield,127021517,"Greenfield Park , Prairiewood",429,532,617,650,647,722,505,487,520,536,564,569,603,463,398,273,179,144,8838,-33.875271,150.890937
New South Wales,12702,Fairfield,127021518,"Horsley Park , Kemps Creek",228,270,309,317,393,350,249,207,277,369,309,313,251,240,224,169,124,124,4723,null,null
New South Wales,12702,Fairfield,127021519,"Smithfield , Wetherill Park",1249,1267,1222,1164,1383,1478,1285,1155,1142,1233,1074,1137,1096,1027,827,577,444,453,19213,-33.848841,150.938146
New South Wales,12702,Fairfield,127021520,"St Johns Park , Wakeley",568,656,684,734,787,854,702,693,566,686,644,723,778,719,533,372,245,241,11185,-33.883099,150.901647
New South Wales,12702,Fairfield,127021521,Wetherill Park Industrial,0,0,0,0,2,0,2,4,2,3,9,2,2,2,2,2,3,1,36,-33.84202,150.902988
New South Wales,12703,Liverpool,127031522,Casula,1275,1159,1194,1194,1223,1308,1258,1146,1031,1161,1067,1021,818,678,492,337,323,288,16973,-33.953036,150.901347
New South Wales,12703,Liverpool,127031523,"Chipping Norton , Moorebank",1580,1672,1467,1290,1238,1324,1604,1705,1552,1463,1095,1149,998,962,898,510,272,274,21053,-33.917214,150.961112
New South Wales,12703,Liverpool,127031524,"Holsworthy , Wattle Grove",1646,1702,1502,1535,1596,1694,1712,1824,1479,1656,1426,1252,891,669,496,368,181,278,21907,null,null
New South Wales,12703,Liverpool,127031598,Liverpool,2725,2152,1839,1770,2278,2888,2915,2584,2044,1806,1636,1594,1459,1182,975,722,542,486,31597,null,null
New South Wales,12703,Liverpool,127031599,"Lurnea , Cartwright",1060,1025,1001,800,957,913,842,813,759,695,724,727,611,442,397,349,275,191,12581,-33.934195,150.897681
New South Wales,12703,Liverpool,127031600,"Prestons , Edmondson Park",1696,1927,1833,1682,1606,1416,1733,1782,1714,1631,1283,1076,811,522,366,241,152,148,21619,-33.941757,150.872145
New South Wales,12703,Liverpool,127031601,Warwick Farm,550,363,299,327,522,631,764,556,452,377,332,361,350,302,188,164,105,75,6718,null,null
New South Wales,12801,"Cronulla , Miranda , Caringbah",128011529,"Gymea , Grays Point",1113,1222,1298,1174,1084,976,1075,1111,1233,1531,1270,1192,1021,779,747,616,456,463,18361,-34.033531,151.086625
New South Wales,12801,"Cronulla , Miranda , Caringbah",128011530,"Miranda , Yowie Bay",1253,1201,1145,1080,1059,1324,1345,1346,1332,1329,1142,1198,1041,867,774,629,596,766,19427,-34.031833,151.10243
New South Wales,12801,"Cronulla , Miranda , Caringbah",128011531,"Sylvania , Taren Point",906,1036,1018,998,1036,960,876,1004,1014,1200,1058,1050,1015,859,902,806,646,806,17190,-34.014152,151.098288
New South Wales,12801,"Cronulla , Miranda , Caringbah",128011602,Caringbah,899,835,701,579,676,1015,1189,1045,946,867,725,722,627,544,476,355,264,416,12881,-34.036615,151.12448
New South Wales,12801,"Cronulla , Miranda , Caringbah",128011603,Caringbah South,739,923,947,795,847,648,547,828,788,920,794,805,828,671,612,391,360,429,12872,-34.054274,151.120404
New South Wales,12801,"Cronulla , Miranda , Caringbah",128011604,"Cronulla , Kurnell , Bundeena",1423,1087,1121,1147,1435,2296,2429,1825,1537,1676,1593,1791,1727,1454,1170,782,505,611,25609,-34.045839,151.151521
New South Wales,12801,"Cronulla , Miranda , Caringbah",128011605,"Lilli Pilli , Port Hacking , Dolans Bay",172,186,235,283,283,160,97,135,188,228,270,258,210,197,128,91,66,83,3270,-34.0686,151.115227
New South Wales,12801,"Cronulla , Miranda , Caringbah",128011606,"Woolaware , Burraneer",432,573,582,539,560,524,387,491,511,633,621,588,565,450,337,222,163,213,8391,null,null
New South Wales,12802,"Sutherland , Menai , Heathcote",128021533,"Heathcote , Waterfall",433,466,457,407,424,372,357,407,461,478,417,421,356,324,271,240,166,272,6729,-34.118203,150.974077
New South Wales,12802,"Sutherland , Menai , Heathcote",128021534,"Illawong , Alfords Point",499,617,692,703,733,815,451,549,600,703,668,916,944,733,447,218,161,150,10599,-33.999555,151.041991
New South Wales,12802,"Sutherland , Menai , Heathcote",128021535,"Menai , Lucas Heights , Woronora",1209,1452,1471,1666,1705,1291,1072,1265,1303,1538,1587,1618,1517,1160,787,480,280,318,21719,-34.022755,150.994546
New South Wales,12802,"Sutherland , Menai , Heathcote",128021536,"Oyster Bay , Como , Jannali",1440,1838,1694,1406,1263,990,1036,1465,1690,1851,1423,1358,1160,1046,1001,662,396,482,22201,-34.005033,151.078347
New South Wales,12802,"Sutherland , Menai , Heathcote",128021537,Royal National Park,1,1,2,0,2,2,6,5,7,2,0,0,0,0,0,0,0,0,28,-34.12206,151.051402
New South Wales,12802,"Sutherland , Menai , Heathcote",128021538,"Sutherland , Kirrawee",1558,1321,1152,1109,1257,1876,2003,1879,1588,1479,1246,1308,1058,892,854,673,505,626,22384,-34.08002,150.999438
New South Wales,12802,"Sutherland , Menai , Heathcote",128021607,Engadine,1158,1449,1391,1192,940,726,965,1301,1375,1408,971,877,797,770,917,638,344,280,17499,-34.057305,151.007603
New South Wales,12802,"Sutherland , Menai , Heathcote",128021608,"Loftus , Yarrawarrah",484,532,578,472,461,407,370,464,523,542,467,427,424,374,352,251,178,147,7453,-34.045212,151.045383
New South Wales,12802,"Sutherland , Menai , Heathcote",128021609,Woronora Heights,162,196,245,303,329,231,102,126,203,338,279,332,294,201,123,50,34,21,3569,-34.033866,151.025992
Victoria,20101,Ballarat,201011001,Alfredton,1043,1128,1199,1038,876,874,1031,1059,925,974,854,748,628,548,478,317,188,161,14069,null,null
Victoria,20101,Ballarat,201011002,Ballarat,520,722,769,848,925,709,627,662,679,827,822,871,761,724,652,459,306,342,12225,-37.563892,143.852395
Victoria,20101,Ballarat,201011003,"Ballarat, Ballarat North",1578,1553,1434,1344,1702,1738,1665,1597,1403,1485,1527,1623,1458,1325,1119,724,562,620,24457,-37.563892,143.852395
Victoria,20101,Ballarat,201011004,"Ballarat, Ballarat South",1557,1557,1459,1357,2337,2489,1741,1608,1471,1481,1309,1406,1405,1260,1174,770,562,651,25594,-37.563892,143.852395
Victoria,20101,Ballarat,201011005,Buninyong,409,587,595,512,763,344,338,421,510,551,471,512,487,455,332,204,133,88,7712,-37.655343,143.896225
Victoria,20101,Ballarat,201011006,Delacombe,701,563,596,574,591,771,668,526,449,527,452,496,438,372,308,186,147,129,8494,-37.57993,143.806578
